{
"type": "FeatureCollection",
"name": "Indicador_desercion_distritos",
"crs": { "type": "name", "properties": { "name": "urn:ogc:def:crs:OGC:1.3:CRS84" } },
"features": [
{ "type": "Feature", "properties": { "id": 1.0, "distrito_i": 13, "nombre_dis": "San Juan Tepezontes", "municipio": "LP_CENTRO", "departamen": "La Paz", "anio": null, "total_dese": 555.0, "porcentaje": 0.68 }, "geometry": { "type": "Point", "coordinates": [ -88.994511282663495, 13.598744489579879 ] } },
{ "type": "Feature", "properties": { "id": 2.0, "distrito_i": 50, "nombre_dis": "Ilopango", "municipio": "SS_ESTE", "departamen": "San Salvador", "anio": null, "total_dese": 2562.0, "porcentaje": 3.15 }, "geometry": { "type": "Point", "coordinates": [ -89.095428116379864, 13.692355396508134 ] } },
{ "type": "Feature", "properties": { "id": 3.0, "distrito_i": 62, "nombre_dis": "San Salvador", "municipio": "SS_CENTRO", "departamen": "San Salvador", "anio": null, "total_dese": 4677.0, "porcentaje": 5.76 }, "geometry": { "type": "Point", "coordinates": [ -89.215557345956526, 13.693433386228698 ] } },
{ "type": "Feature", "properties": { "id": 4.0, "distrito_i": 35, "nombre_dis": "San Miguel Tepezontes", "municipio": "LP_CENTRO", "departamen": "La Paz", "anio": null, "total_dese": 523.0, "porcentaje": 0.64 }, "geometry": { "type": "Point", "coordinates": [ -89.019229766698487, 13.63183294504425 ] } },
{ "type": "Feature", "properties": { "id": 5.0, "distrito_i": 57, "nombre_dis": "Sacacoyo", "municipio": "LL_OESTE", "departamen": "La Libertad", "anio": null, "total_dese": 301.0, "porcentaje": 0.37 }, "geometry": { "type": "Point", "coordinates": [ -89.443517649074707, 13.74675700816738 ] } },
{ "type": "Feature", "properties": { "id": 6.0, "distrito_i": 51, "nombre_dis": "Antiguo Cuscatlán", "municipio": "LL_ESTE", "departamen": "La Libertad", "anio": null, "total_dese": 1300.0, "porcentaje": 1.6 }, "geometry": { "type": "Point", "coordinates": [ -89.252940018858908, 13.674067207176597 ] } },
{ "type": "Feature", "properties": { "id": 7.0, "distrito_i": 12, "nombre_dis": "Nejapa", "municipio": "SS_OESTE", "departamen": "San Salvador", "anio": null, "total_dese": 984.0, "porcentaje": 1.21 }, "geometry": { "type": "Point", "coordinates": [ -89.22627714654206, 13.840025565863982 ] } },
{ "type": "Feature", "properties": { "id": 8.0, "distrito_i": 30, "nombre_dis": "San Pablo Tacachico", "municipio": "LL_NORTE", "departamen": "La Libertad", "anio": null, "total_dese": 642.0, "porcentaje": 0.79 }, "geometry": { "type": "Point", "coordinates": [ -89.330760940863698, 13.999557644210299 ] } },
{ "type": "Feature", "properties": { "id": 9.0, "distrito_i": 8, "nombre_dis": "Comasagua", "municipio": "LL_SUR", "departamen": "La Libertad", "anio": null, "total_dese": 235.0, "porcentaje": 0.29 }, "geometry": { "type": "Point", "coordinates": [ -89.365206935041712, 13.607104323779247 ] } },
{ "type": "Feature", "properties": { "id": 10.0, "distrito_i": 38, "nombre_dis": "Cuyultitán", "municipio": "LP_OESTE", "departamen": "La Paz", "anio": null, "total_dese": 856.0, "porcentaje": 1.05 }, "geometry": { "type": "Point", "coordinates": [ -89.091192634935666, 13.537676235774381 ] } },
{ "type": "Feature", "properties": { "id": 11.0, "distrito_i": 52, "nombre_dis": "San Marcos", "municipio": "SS_CENTRO", "departamen": "San Salvador", "anio": null, "total_dese": 1010.0, "porcentaje": 1.24 }, "geometry": { "type": "Point", "coordinates": [ -89.228031369188074, 13.640880021963762 ] } },
{ "type": "Feature", "properties": { "id": 12.0, "distrito_i": 11, "nombre_dis": "Panchimalco", "municipio": "SS_SUR", "departamen": "San Salvador", "anio": null, "total_dese": 347.0, "porcentaje": 0.43 }, "geometry": { "type": "Point", "coordinates": [ -89.177709759128973, 13.572361852985443 ] } },
{ "type": "Feature", "properties": { "id": 13.0, "distrito_i": 64, "nombre_dis": "Quezaltepeque", "municipio": "LL_NORTE", "departamen": "La Libertad", "anio": null, "total_dese": 2371.0, "porcentaje": 2.92 }, "geometry": { "type": "Point", "coordinates": [ -89.273780056561691, 13.850797205483703 ] } },
{ "type": "Feature", "properties": { "id": 14.0, "distrito_i": 56, "nombre_dis": "Zaragoza", "municipio": "LL_ESTE", "departamen": "La Libertad", "anio": null, "total_dese": 2194.0, "porcentaje": 2.7 }, "geometry": { "type": "Point", "coordinates": [ -89.297370465996622, 13.575376773507037 ] } },
{ "type": "Feature", "properties": { "id": 15.0, "distrito_i": 53, "nombre_dis": "Guazapa", "municipio": "SS_NORTE", "departamen": "San Salvador", "anio": null, "total_dese": 539.0, "porcentaje": 0.66 }, "geometry": { "type": "Point", "coordinates": [ -89.166620726822259, 13.897184452900092 ] } },
{ "type": "Feature", "properties": { "id": 16.0, "distrito_i": 2, "nombre_dis": "San Juan Opico", "municipio": "LL_CENTRO", "departamen": "La Libertad", "anio": null, "total_dese": 2474.0, "porcentaje": 3.05 }, "geometry": { "type": "Point", "coordinates": [ -89.368313107948509, 13.860001166367784 ] } },
{ "type": "Feature", "properties": { "id": 17.0, "distrito_i": 3, "nombre_dis": "San Matías", "municipio": "LL_NORTE", "departamen": "La Libertad", "anio": null, "total_dese": 483.0, "porcentaje": 0.59 }, "geometry": { "type": "Point", "coordinates": [ -89.306135594839446, 13.899514485284268 ] } },
{ "type": "Feature", "properties": { "id": 18.0, "distrito_i": 55, "nombre_dis": "Santa Tecla", "municipio": "LL_SUR", "departamen": "La Libertad", "anio": null, "total_dese": 4294.0, "porcentaje": 5.29 }, "geometry": { "type": "Point", "coordinates": [ -89.3092936964986, 13.64783576482407 ] } },
{ "type": "Feature", "properties": { "id": 19.0, "distrito_i": 9, "nombre_dis": "Mercedes La Ceiba", "municipio": "LP_CENTRO", "departamen": "La Paz", "anio": null, "total_dese": 552.0, "porcentaje": 0.68 }, "geometry": { "type": "Point", "coordinates": [ -88.914294226135169, 13.644706359919478 ] } },
{ "type": "Feature", "properties": { "id": 20.0, "distrito_i": 26, "nombre_dis": "Huizúcar", "municipio": "LL_ESTE", "departamen": "La Libertad", "anio": null, "total_dese": 214.0, "porcentaje": 0.26 }, "geometry": { "type": "Point", "coordinates": [ -89.24261374919304, 13.574620748727474 ] } },
{ "type": "Feature", "properties": { "id": 21.0, "distrito_i": 10, "nombre_dis": "El Rosario", "municipio": "LP_CENTRO", "departamen": "La Paz", "anio": null, "total_dese": 1169.0, "porcentaje": 1.44 }, "geometry": { "type": "Point", "coordinates": [ -89.004590724038536, 13.469144945254312 ] } },
{ "type": "Feature", "properties": { "id": 22.0, "distrito_i": 54, "nombre_dis": "San Francisco Chinameca", "municipio": "LP_OESTE", "departamen": "La Paz", "anio": null, "total_dese": 381.0, "porcentaje": 0.47 }, "geometry": { "type": "Point", "coordinates": [ -89.072905083037696, 13.612946402830245 ] } },
{ "type": "Feature", "properties": { "id": 23.0, "distrito_i": 28, "nombre_dis": "San Pedro Masahuat", "municipio": "LP_OESTE", "departamen": "La Paz", "anio": null, "total_dese": 1196.0, "porcentaje": 1.47 }, "geometry": { "type": "Point", "coordinates": [ -89.029682481331506, 13.450971283861213 ] } },
{ "type": "Feature", "properties": { "id": 24.0, "distrito_i": 24, "nombre_dis": "Soyapango", "municipio": "SS_ESTE", "departamen": "San Salvador", "anio": null, "total_dese": 4418.0, "porcentaje": 5.44 }, "geometry": { "type": "Point", "coordinates": [ -89.143453849141522, 13.703777189278172 ] } },
{ "type": "Feature", "properties": { "id": 25.0, "distrito_i": 21, "nombre_dis": "Santa María Ostuma", "municipio": "LP_CENTRO", "departamen": "La Paz", "anio": null, "total_dese": 511.0, "porcentaje": 0.63 }, "geometry": { "type": "Point", "coordinates": [ -88.926518228995505, 13.625972350993607 ] } },
{ "type": "Feature", "properties": { "id": 26.0, "distrito_i": 39, "nombre_dis": "San Juan Talpa", "municipio": "LP_OESTE", "departamen": "La Paz", "anio": null, "total_dese": 1110.0, "porcentaje": 1.37 }, "geometry": { "type": "Point", "coordinates": [ -89.090359746442402, 13.499191968903707 ] } },
{ "type": "Feature", "properties": { "id": 27.0, "distrito_i": 40, "nombre_dis": "Rosario De Mora", "municipio": "SS_SUR", "departamen": "San Salvador", "anio": null, "total_dese": 198.0, "porcentaje": 0.24 }, "geometry": { "type": "Point", "coordinates": [ -89.206298255176719, 13.539808535353398 ] } },
{ "type": "Feature", "properties": { "id": 28.0, "distrito_i": 29, "nombre_dis": "San Luis Talpa", "municipio": "LP_OESTE", "departamen": "La Paz", "anio": null, "total_dese": 1397.0, "porcentaje": 1.72 }, "geometry": { "type": "Point", "coordinates": [ -89.096976430871209, 13.435807171389621 ] } },
{ "type": "Feature", "properties": { "id": 29.0, "distrito_i": 20, "nombre_dis": "Cuscatancingo", "municipio": "SS_ESTE", "departamen": "San Salvador", "anio": null, "total_dese": 1436.0, "porcentaje": 1.77 }, "geometry": { "type": "Point", "coordinates": [ -89.177880739771581, 13.730732612097876 ] } },
{ "type": "Feature", "properties": { "id": 30.0, "distrito_i": 25, "nombre_dis": "San Luis La Herradura", "municipio": "LP_CENTRO", "departamen": "La Paz", "anio": null, "total_dese": 1359.0, "porcentaje": 1.67 }, "geometry": { "type": "Point", "coordinates": [ -88.913371501531415, 13.333261548866092 ] } },
{ "type": "Feature", "properties": { "id": 31.0, "distrito_i": 4, "nombre_dis": "Tamanique", "municipio": "LL_COSTA", "departamen": "La Libertad", "anio": null, "total_dese": 229.0, "porcentaje": 0.28 }, "geometry": { "type": "Point", "coordinates": [ -89.411616402578744, 13.563902424971866 ] } },
{ "type": "Feature", "properties": { "id": 32.0, "distrito_i": 33, "nombre_dis": "San Pedro Nonualco", "municipio": "LP_CENTRO", "departamen": "La Paz", "anio": null, "total_dese": 837.0, "porcentaje": 1.03 }, "geometry": { "type": "Point", "coordinates": [ -88.934831917172048, 13.591295562139871 ] } },
{ "type": "Feature", "properties": { "id": 33.0, "distrito_i": 41, "nombre_dis": "Ciudad Arce", "municipio": "LL_CENTRO", "departamen": "La Libertad", "anio": null, "total_dese": 1849.0, "porcentaje": 2.28 }, "geometry": { "type": "Point", "coordinates": [ -89.423996266132178, 13.814255718778384 ] } },
{ "type": "Feature", "properties": { "id": 34.0, "distrito_i": 19, "nombre_dis": "San Emigdio", "municipio": "LP_CENTRO", "departamen": "La Paz", "anio": null, "total_dese": 490.0, "porcentaje": 0.6 }, "geometry": { "type": "Point", "coordinates": [ -88.992381787040571, 13.649778377203535 ] } },
{ "type": "Feature", "properties": { "id": 35.0, "distrito_i": 31, "nombre_dis": "La Libertad", "municipio": "LL_COSTA", "departamen": "La Libertad", "anio": null, "total_dese": 2926.0, "porcentaje": 3.6 }, "geometry": { "type": "Point", "coordinates": [ -89.264363936184125, 13.490338468999985 ] } },
{ "type": "Feature", "properties": { "id": 36.0, "distrito_i": 61, "nombre_dis": "Olocuilta", "municipio": "LP_OESTE", "departamen": "La Paz", "anio": null, "total_dese": 3037.0, "porcentaje": 3.74 }, "geometry": { "type": "Point", "coordinates": [ -89.127111575671947, 13.539110285464742 ] } },
{ "type": "Feature", "properties": { "id": 37.0, "distrito_i": 43, "nombre_dis": "Jerusalén", "municipio": "LP_CENTRO", "departamen": "La Paz", "anio": null, "total_dese": 373.0, "porcentaje": 0.46 }, "geometry": { "type": "Point", "coordinates": [ -88.911166532205229, 13.654496392721276 ] } },
{ "type": "Feature", "properties": { "id": 38.0, "distrito_i": 63, "nombre_dis": "San José Villanueva", "municipio": "LL_ESTE", "departamen": "La Libertad", "anio": null, "total_dese": 405.0, "porcentaje": 0.5 }, "geometry": { "type": "Point", "coordinates": [ -89.270749889321152, 13.558661851993948 ] } },
{ "type": "Feature", "properties": { "id": 39.0, "distrito_i": 36, "nombre_dis": "Delgado", "municipio": "SS_ESTE", "departamen": "San Salvador", "anio": null, "total_dese": 1478.0, "porcentaje": 1.82 }, "geometry": { "type": "Point", "coordinates": [ -89.160325955587581, 13.755155299169184 ] } },
{ "type": "Feature", "properties": { "id": 40.0, "distrito_i": 60, "nombre_dis": "Tonacatepeque", "municipio": "SS_ESTE", "departamen": "San Salvador", "anio": null, "total_dese": 771.0, "porcentaje": 0.95 }, "geometry": { "type": "Point", "coordinates": [ -89.118914089118078, 13.783230398634702 ] } },
{ "type": "Feature", "properties": { "id": 41.0, "distrito_i": 5, "nombre_dis": "San Antonio Masahuat", "municipio": "LP_CENTRO", "departamen": "La Paz", "anio": null, "total_dese": 649.0, "porcentaje": 0.8 }, "geometry": { "type": "Point", "coordinates": [ -89.021258326053754, 13.572042056588906 ] } },
{ "type": "Feature", "properties": { "id": 42.0, "distrito_i": 23, "nombre_dis": "San Martín", "municipio": "SS_ESTE", "departamen": "San Salvador", "anio": null, "total_dese": 2047.0, "porcentaje": 2.52 }, "geometry": { "type": "Point", "coordinates": [ -89.062046409043504, 13.735125893975415 ] } },
{ "type": "Feature", "properties": { "id": 43.0, "distrito_i": 18, "nombre_dis": "Santiago Nonualco", "municipio": "LP_CENTRO", "departamen": "La Paz", "anio": null, "total_dese": 2728.0, "porcentaje": 3.36 }, "geometry": { "type": "Point", "coordinates": [ -88.959283540327007, 13.470583405871963 ] } },
{ "type": "Feature", "properties": { "id": 44.0, "distrito_i": 44, "nombre_dis": "Tepecoyo", "municipio": "LL_OESTE", "departamen": "La Libertad", "anio": null, "total_dese": 277.0, "porcentaje": 0.34 }, "geometry": { "type": "Point", "coordinates": [ -89.489030691454388, 13.692204582189408 ] } },
{ "type": "Feature", "properties": { "id": 45.0, "distrito_i": 17, "nombre_dis": "Santo Tomás", "municipio": "SS_CENTRO", "departamen": "San Salvador", "anio": null, "total_dese": 574.0, "porcentaje": 0.71 }, "geometry": { "type": "Point", "coordinates": [ -89.143507967660597, 13.640337332489858 ] } },
{ "type": "Feature", "properties": { "id": 46.0, "distrito_i": 45, "nombre_dis": "San Juan Nonualco", "municipio": "LP_ESTE", "departamen": "La Paz", "anio": null, "total_dese": 2187.0, "porcentaje": 2.69 }, "geometry": { "type": "Point", "coordinates": [ -88.905277136785401, 13.503095592612924 ] } },
{ "type": "Feature", "properties": { "id": 47.0, "distrito_i": 46, "nombre_dis": "Santiago Texacuangos", "municipio": "SS_CENTRO", "departamen": "San Salvador", "anio": null, "total_dese": 495.0, "porcentaje": 0.61 }, "geometry": { "type": "Point", "coordinates": [ -89.09518647510221, 13.649934212964384 ] } },
{ "type": "Feature", "properties": { "id": 48.0, "distrito_i": 27, "nombre_dis": "Apopa", "municipio": "SS_OESTE", "departamen": "San Salvador", "anio": null, "total_dese": 3332.0, "porcentaje": 4.1 }, "geometry": { "type": "Point", "coordinates": [ -89.196972190845955, 13.799417549705316 ] } },
{ "type": "Feature", "properties": { "id": 49.0, "distrito_i": 59, "nombre_dis": "Nuevo Cuscatlán", "municipio": "LL_ESTE", "departamen": "La Libertad", "anio": null, "total_dese": 1099.0, "porcentaje": 1.35 }, "geometry": { "type": "Point", "coordinates": [ -89.265753031975109, 13.643098273389553 ] } },
{ "type": "Feature", "properties": { "id": 50.0, "distrito_i": 1, "nombre_dis": "El Paisnal", "municipio": "SS_NORTE", "departamen": "San Salvador", "anio": null, "total_dese": 409.0, "porcentaje": 0.5 }, "geometry": { "type": "Point", "coordinates": [ -89.219449405481427, 14.008455202242615 ] } },
{ "type": "Feature", "properties": { "id": 51.0, "distrito_i": 6, "nombre_dis": "Chiltiupán", "municipio": "LL_COSTA", "departamen": "La Libertad", "anio": null, "total_dese": 307.0, "porcentaje": 0.38 }, "geometry": { "type": "Point", "coordinates": [ -89.463978243276372, 13.563906026964119 ] } },
{ "type": "Feature", "properties": { "id": 52.0, "distrito_i": 34, "nombre_dis": "Tapalhuaca", "municipio": "LP_OESTE", "departamen": "La Paz", "anio": null, "total_dese": 587.0, "porcentaje": 0.72 }, "geometry": { "type": "Point", "coordinates": [ -89.067134232059161, 13.548945944954532 ] } },
{ "type": "Feature", "properties": { "id": 53.0, "distrito_i": 16, "nombre_dis": "Ayutuxtepeque", "municipio": "SS_OESTE", "departamen": "San Salvador", "anio": null, "total_dese": 954.0, "porcentaje": 1.17 }, "geometry": { "type": "Point", "coordinates": [ -89.201749629048479, 13.754500961801114 ] } },
{ "type": "Feature", "properties": { "id": 54.0, "distrito_i": 47, "nombre_dis": "Jayaque", "municipio": "LL_OESTE", "departamen": "La Libertad", "anio": null, "total_dese": 429.0, "porcentaje": 0.53 }, "geometry": { "type": "Point", "coordinates": [ -89.444656976706085, 13.677728970758274 ] } },
{ "type": "Feature", "properties": { "id": 55.0, "distrito_i": 15, "nombre_dis": "Jicalapa", "municipio": "LL_COSTA", "departamen": "La Libertad", "anio": null, "total_dese": 211.0, "porcentaje": 0.26 }, "geometry": { "type": "Point", "coordinates": [ -89.516369353052582, 13.53403142057169 ] } },
{ "type": "Feature", "properties": { "id": 56.0, "distrito_i": 48, "nombre_dis": "Aguilares", "municipio": "SS_NORTE", "departamen": "San Salvador", "anio": null, "total_dese": 951.0, "porcentaje": 1.17 }, "geometry": { "type": "Point", "coordinates": [ -89.197360689137852, 13.955039247662924 ] } },
{ "type": "Feature", "properties": { "id": 57.0, "distrito_i": 37, "nombre_dis": "Talnique", "municipio": "LL_OESTE", "departamen": "La Libertad", "anio": null, "total_dese": 654.0, "porcentaje": 0.81 }, "geometry": { "type": "Point", "coordinates": [ -89.396238680920874, 13.675073006768327 ] } },
{ "type": "Feature", "properties": { "id": 58.0, "distrito_i": 58, "nombre_dis": "Colón", "municipio": "LL_OESTE", "departamen": "La Libertad", "anio": null, "total_dese": 2966.0, "porcentaje": 3.65 }, "geometry": { "type": "Point", "coordinates": [ -89.35847055005479, 13.724475559713939 ] } },
{ "type": "Feature", "properties": { "id": 59.0, "distrito_i": 14, "nombre_dis": "Mejicanos", "municipio": "SS_CENTRO", "departamen": "San Salvador", "anio": null, "total_dese": 2928.0, "porcentaje": 3.6 }, "geometry": { "type": "Point", "coordinates": [ -89.218784666588803, 13.737886615764458 ] } },
{ "type": "Feature", "properties": { "id": 60.0, "distrito_i": 49, "nombre_dis": "Teotepeque", "municipio": "LL_COSTA", "departamen": "La Libertad", "anio": null, "total_dese": 256.0, "porcentaje": 0.32 }, "geometry": { "type": "Point", "coordinates": [ -89.543374356396043, 13.576690757421156 ] } },
{ "type": "Feature", "properties": { "id": 61.0, "distrito_i": 7, "nombre_dis": "Zacatecoluca", "municipio": "LP_ESTE", "departamen": "La Paz", "anio": null, "total_dese": 3636.0, "porcentaje": 4.48 }, "geometry": { "type": "Point", "coordinates": [ -88.850757252282946, 13.431007042470963 ] } },
{ "type": "Feature", "properties": { "id": 62.0, "distrito_i": 22, "nombre_dis": "San Rafael Obrajuelo", "municipio": "LP_ESTE", "departamen": "La Paz", "anio": null, "total_dese": 867.0, "porcentaje": 1.07 }, "geometry": { "type": "Point", "coordinates": [ -88.921748245946773, 13.494522336012833 ] } },
{ "type": "Feature", "properties": { "id": 63.0, "distrito_i": 4, "nombre_dis": "Tamanique", "municipio": "LL_COSTA", "departamen": "La Libertad", "anio": null, "total_dese": 256.0, "porcentaje": 0.33 }, "geometry": { "type": "Point", "coordinates": [ -89.411616402578744, 13.563902424971866 ] } },
{ "type": "Feature", "properties": { "id": 64.0, "distrito_i": 26, "nombre_dis": "Huizúcar", "municipio": "LL_ESTE", "departamen": "La Libertad", "anio": null, "total_dese": 208.0, "porcentaje": 0.27 }, "geometry": { "type": "Point", "coordinates": [ -89.24261374919304, 13.574620748727474 ] } },
{ "type": "Feature", "properties": { "id": 65.0, "distrito_i": 62, "nombre_dis": "San Salvador", "municipio": "SS_CENTRO", "departamen": "San Salvador", "anio": null, "total_dese": 4701.0, "porcentaje": 6.02 }, "geometry": { "type": "Point", "coordinates": [ -89.215557345956526, 13.693433386228698 ] } },
{ "type": "Feature", "properties": { "id": 66.0, "distrito_i": 31, "nombre_dis": "La Libertad", "municipio": "LL_COSTA", "departamen": "La Libertad", "anio": null, "total_dese": 3185.0, "porcentaje": 4.08 }, "geometry": { "type": "Point", "coordinates": [ -89.264363936184125, 13.490338468999985 ] } },
{ "type": "Feature", "properties": { "id": 67.0, "distrito_i": 27, "nombre_dis": "Apopa", "municipio": "SS_OESTE", "departamen": "San Salvador", "anio": null, "total_dese": 2621.0, "porcentaje": 3.36 }, "geometry": { "type": "Point", "coordinates": [ -89.196972190845955, 13.799417549705316 ] } },
{ "type": "Feature", "properties": { "id": 68.0, "distrito_i": 30, "nombre_dis": "San Pablo Tacachico", "municipio": "LL_NORTE", "departamen": "La Libertad", "anio": null, "total_dese": 669.0, "porcentaje": 0.86 }, "geometry": { "type": "Point", "coordinates": [ -89.330760940863698, 13.999557644210299 ] } },
{ "type": "Feature", "properties": { "id": 69.0, "distrito_i": 29, "nombre_dis": "San Luis Talpa", "municipio": "LP_OESTE", "departamen": "La Paz", "anio": null, "total_dese": 1647.0, "porcentaje": 2.11 }, "geometry": { "type": "Point", "coordinates": [ -89.096976430871209, 13.435807171389621 ] } },
{ "type": "Feature", "properties": { "id": 70.0, "distrito_i": 28, "nombre_dis": "San Pedro Masahuat", "municipio": "LP_OESTE", "departamen": "La Paz", "anio": null, "total_dese": 1216.0, "porcentaje": 1.56 }, "geometry": { "type": "Point", "coordinates": [ -89.029682481331506, 13.450971283861213 ] } },
{ "type": "Feature", "properties": { "id": 71.0, "distrito_i": 61, "nombre_dis": "Olocuilta", "municipio": "LP_OESTE", "departamen": "La Paz", "anio": null, "total_dese": 2449.0, "porcentaje": 3.14 }, "geometry": { "type": "Point", "coordinates": [ -89.127111575671947, 13.539110285464742 ] } },
{ "type": "Feature", "properties": { "id": 72.0, "distrito_i": 1, "nombre_dis": "El Paisnal", "municipio": "SS_NORTE", "departamen": "San Salvador", "anio": null, "total_dese": 408.0, "porcentaje": 0.52 }, "geometry": { "type": "Point", "coordinates": [ -89.219449405481427, 14.008455202242615 ] } },
{ "type": "Feature", "properties": { "id": 73.0, "distrito_i": 60, "nombre_dis": "Tonacatepeque", "municipio": "SS_ESTE", "departamen": "San Salvador", "anio": null, "total_dese": 750.0, "porcentaje": 0.96 }, "geometry": { "type": "Point", "coordinates": [ -89.118914089118078, 13.783230398634702 ] } },
{ "type": "Feature", "properties": { "id": 74.0, "distrito_i": 5, "nombre_dis": "San Antonio Masahuat", "municipio": "LP_CENTRO", "departamen": "La Paz", "anio": null, "total_dese": 489.0, "porcentaje": 0.63 }, "geometry": { "type": "Point", "coordinates": [ -89.021258326053754, 13.572042056588906 ] } },
{ "type": "Feature", "properties": { "id": 75.0, "distrito_i": 59, "nombre_dis": "Nuevo Cuscatlán", "municipio": "LL_ESTE", "departamen": "La Libertad", "anio": null, "total_dese": 907.0, "porcentaje": 1.16 }, "geometry": { "type": "Point", "coordinates": [ -89.265753031975109, 13.643098273389553 ] } },
{ "type": "Feature", "properties": { "id": 76.0, "distrito_i": 6, "nombre_dis": "Chiltiupán", "municipio": "LL_COSTA", "departamen": "La Libertad", "anio": null, "total_dese": 304.0, "porcentaje": 0.39 }, "geometry": { "type": "Point", "coordinates": [ -89.463978243276372, 13.563906026964119 ] } },
{ "type": "Feature", "properties": { "id": 77.0, "distrito_i": 58, "nombre_dis": "Colón", "municipio": "LL_OESTE", "departamen": "La Libertad", "anio": null, "total_dese": 3056.0, "porcentaje": 3.91 }, "geometry": { "type": "Point", "coordinates": [ -89.35847055005479, 13.724475559713939 ] } },
{ "type": "Feature", "properties": { "id": 78.0, "distrito_i": 7, "nombre_dis": "Zacatecoluca", "municipio": "LP_ESTE", "departamen": "La Paz", "anio": null, "total_dese": 3773.0, "porcentaje": 4.83 }, "geometry": { "type": "Point", "coordinates": [ -88.850757252282946, 13.431007042470963 ] } },
{ "type": "Feature", "properties": { "id": 79.0, "distrito_i": 64, "nombre_dis": "Quezaltepeque", "municipio": "LL_NORTE", "departamen": "La Libertad", "anio": null, "total_dese": 2770.0, "porcentaje": 3.55 }, "geometry": { "type": "Point", "coordinates": [ -89.273780056561691, 13.850797205483703 ] } },
{ "type": "Feature", "properties": { "id": 80.0, "distrito_i": 57, "nombre_dis": "Sacacoyo", "municipio": "LL_OESTE", "departamen": "La Libertad", "anio": null, "total_dese": 264.0, "porcentaje": 0.34 }, "geometry": { "type": "Point", "coordinates": [ -89.443517649074707, 13.74675700816738 ] } },
{ "type": "Feature", "properties": { "id": 81.0, "distrito_i": 56, "nombre_dis": "Zaragoza", "municipio": "LL_ESTE", "departamen": "La Libertad", "anio": null, "total_dese": 1706.0, "porcentaje": 2.18 }, "geometry": { "type": "Point", "coordinates": [ -89.297370465996622, 13.575376773507037 ] } },
{ "type": "Feature", "properties": { "id": 82.0, "distrito_i": 8, "nombre_dis": "Comasagua", "municipio": "LL_SUR", "departamen": "La Libertad", "anio": null, "total_dese": 255.0, "porcentaje": 0.33 }, "geometry": { "type": "Point", "coordinates": [ -89.365206935041712, 13.607104323779247 ] } },
{ "type": "Feature", "properties": { "id": 83.0, "distrito_i": 55, "nombre_dis": "Santa Tecla", "municipio": "LL_SUR", "departamen": "La Libertad", "anio": null, "total_dese": 3790.0, "porcentaje": 4.85 }, "geometry": { "type": "Point", "coordinates": [ -89.3092936964986, 13.64783576482407 ] } },
{ "type": "Feature", "properties": { "id": 84.0, "distrito_i": 9, "nombre_dis": "Mercedes La Ceiba", "municipio": "LP_CENTRO", "departamen": "La Paz", "anio": null, "total_dese": 511.0, "porcentaje": 0.65 }, "geometry": { "type": "Point", "coordinates": [ -88.914294226135169, 13.644706359919478 ] } },
{ "type": "Feature", "properties": { "id": 85.0, "distrito_i": 54, "nombre_dis": "San Francisco Chinameca", "municipio": "LP_OESTE", "departamen": "La Paz", "anio": null, "total_dese": 361.0, "porcentaje": 0.46 }, "geometry": { "type": "Point", "coordinates": [ -89.072905083037696, 13.612946402830245 ] } },
{ "type": "Feature", "properties": { "id": 86.0, "distrito_i": 10, "nombre_dis": "El Rosario", "municipio": "LP_CENTRO", "departamen": "La Paz", "anio": null, "total_dese": 1120.0, "porcentaje": 1.43 }, "geometry": { "type": "Point", "coordinates": [ -89.004590724038536, 13.469144945254312 ] } },
{ "type": "Feature", "properties": { "id": 87.0, "distrito_i": 53, "nombre_dis": "Guazapa", "municipio": "SS_NORTE", "departamen": "San Salvador", "anio": null, "total_dese": 628.0, "porcentaje": 0.8 }, "geometry": { "type": "Point", "coordinates": [ -89.166620726822259, 13.897184452900092 ] } },
{ "type": "Feature", "properties": { "id": 88.0, "distrito_i": 11, "nombre_dis": "Panchimalco", "municipio": "SS_SUR", "departamen": "San Salvador", "anio": null, "total_dese": 371.0, "porcentaje": 0.48 }, "geometry": { "type": "Point", "coordinates": [ -89.177709759128973, 13.572361852985443 ] } },
{ "type": "Feature", "properties": { "id": 89.0, "distrito_i": 2, "nombre_dis": "San Juan Opico", "municipio": "LL_CENTRO", "departamen": "La Libertad", "anio": null, "total_dese": 2305.0, "porcentaje": 2.95 }, "geometry": { "type": "Point", "coordinates": [ -89.368313107948509, 13.860001166367784 ] } },
{ "type": "Feature", "properties": { "id": 90.0, "distrito_i": 52, "nombre_dis": "San Marcos", "municipio": "SS_CENTRO", "departamen": "San Salvador", "anio": null, "total_dese": 997.0, "porcentaje": 1.28 }, "geometry": { "type": "Point", "coordinates": [ -89.228031369188074, 13.640880021963762 ] } },
{ "type": "Feature", "properties": { "id": 91.0, "distrito_i": 51, "nombre_dis": "Antiguo Cuscatlán", "municipio": "LL_ESTE", "departamen": "La Libertad", "anio": null, "total_dese": 1241.0, "porcentaje": 1.59 }, "geometry": { "type": "Point", "coordinates": [ -89.252940018858908, 13.674067207176597 ] } },
{ "type": "Feature", "properties": { "id": 92.0, "distrito_i": 12, "nombre_dis": "Nejapa", "municipio": "SS_OESTE", "departamen": "San Salvador", "anio": null, "total_dese": 869.0, "porcentaje": 1.11 }, "geometry": { "type": "Point", "coordinates": [ -89.22627714654206, 13.840025565863982 ] } },
{ "type": "Feature", "properties": { "id": 93.0, "distrito_i": 50, "nombre_dis": "Ilopango", "municipio": "SS_ESTE", "departamen": "San Salvador", "anio": null, "total_dese": 2409.0, "porcentaje": 3.08 }, "geometry": { "type": "Point", "coordinates": [ -89.095428116379864, 13.692355396508134 ] } },
{ "type": "Feature", "properties": { "id": 94.0, "distrito_i": 13, "nombre_dis": "San Juan Tepezontes", "municipio": "LP_CENTRO", "departamen": "La Paz", "anio": null, "total_dese": 530.0, "porcentaje": 0.68 }, "geometry": { "type": "Point", "coordinates": [ -88.994511282663495, 13.598744489579879 ] } },
{ "type": "Feature", "properties": { "id": 95.0, "distrito_i": 49, "nombre_dis": "Teotepeque", "municipio": "LL_COSTA", "departamen": "La Libertad", "anio": null, "total_dese": 251.0, "porcentaje": 0.32 }, "geometry": { "type": "Point", "coordinates": [ -89.543374356396043, 13.576690757421156 ] } },
{ "type": "Feature", "properties": { "id": 96.0, "distrito_i": 14, "nombre_dis": "Mejicanos", "municipio": "SS_CENTRO", "departamen": "San Salvador", "anio": null, "total_dese": 3077.0, "porcentaje": 3.94 }, "geometry": { "type": "Point", "coordinates": [ -89.218784666588803, 13.737886615764458 ] } },
{ "type": "Feature", "properties": { "id": 97.0, "distrito_i": 48, "nombre_dis": "Aguilares", "municipio": "SS_NORTE", "departamen": "San Salvador", "anio": null, "total_dese": 1112.0, "porcentaje": 1.42 }, "geometry": { "type": "Point", "coordinates": [ -89.197360689137852, 13.955039247662924 ] } },
{ "type": "Feature", "properties": { "id": 98.0, "distrito_i": 15, "nombre_dis": "Jicalapa", "municipio": "LL_COSTA", "departamen": "La Libertad", "anio": null, "total_dese": 183.0, "porcentaje": 0.23 }, "geometry": { "type": "Point", "coordinates": [ -89.516369353052582, 13.53403142057169 ] } },
{ "type": "Feature", "properties": { "id": 99.0, "distrito_i": 47, "nombre_dis": "Jayaque", "municipio": "LL_OESTE", "departamen": "La Libertad", "anio": null, "total_dese": 485.0, "porcentaje": 0.62 }, "geometry": { "type": "Point", "coordinates": [ -89.444656976706085, 13.677728970758274 ] } },
{ "type": "Feature", "properties": { "id": 100.0, "distrito_i": 46, "nombre_dis": "Santiago Texacuangos", "municipio": "SS_CENTRO", "departamen": "San Salvador", "anio": null, "total_dese": 455.0, "porcentaje": 0.58 }, "geometry": { "type": "Point", "coordinates": [ -89.09518647510221, 13.649934212964384 ] } },
{ "type": "Feature", "properties": { "id": 101.0, "distrito_i": 16, "nombre_dis": "Ayutuxtepeque", "municipio": "SS_OESTE", "departamen": "San Salvador", "anio": null, "total_dese": 1058.0, "porcentaje": 1.35 }, "geometry": { "type": "Point", "coordinates": [ -89.201749629048479, 13.754500961801114 ] } },
{ "type": "Feature", "properties": { "id": 102.0, "distrito_i": 45, "nombre_dis": "San Juan Nonualco", "municipio": "LP_ESTE", "departamen": "La Paz", "anio": null, "total_dese": 2010.0, "porcentaje": 2.57 }, "geometry": { "type": "Point", "coordinates": [ -88.905277136785401, 13.503095592612924 ] } },
{ "type": "Feature", "properties": { "id": 103.0, "distrito_i": 17, "nombre_dis": "Santo Tomás", "municipio": "SS_CENTRO", "departamen": "San Salvador", "anio": null, "total_dese": 515.0, "porcentaje": 0.66 }, "geometry": { "type": "Point", "coordinates": [ -89.143507967660597, 13.640337332489858 ] } },
{ "type": "Feature", "properties": { "id": 104.0, "distrito_i": 63, "nombre_dis": "San José Villanueva", "municipio": "LL_ESTE", "departamen": "La Libertad", "anio": null, "total_dese": 395.0, "porcentaje": 0.51 }, "geometry": { "type": "Point", "coordinates": [ -89.270749889321152, 13.558661851993948 ] } },
{ "type": "Feature", "properties": { "id": 105.0, "distrito_i": 44, "nombre_dis": "Tepecoyo", "municipio": "LL_OESTE", "departamen": "La Libertad", "anio": null, "total_dese": 261.0, "porcentaje": 0.33 }, "geometry": { "type": "Point", "coordinates": [ -89.489030691454388, 13.692204582189408 ] } },
{ "type": "Feature", "properties": { "id": 106.0, "distrito_i": 18, "nombre_dis": "Santiago Nonualco", "municipio": "LP_CENTRO", "departamen": "La Paz", "anio": null, "total_dese": 2341.0, "porcentaje": 3.0 }, "geometry": { "type": "Point", "coordinates": [ -88.959283540327007, 13.470583405871963 ] } },
{ "type": "Feature", "properties": { "id": 107.0, "distrito_i": 43, "nombre_dis": "Jerusalén", "municipio": "LP_CENTRO", "departamen": "La Paz", "anio": null, "total_dese": 390.0, "porcentaje": 0.5 }, "geometry": { "type": "Point", "coordinates": [ -88.911166532205229, 13.654496392721276 ] } },
{ "type": "Feature", "properties": { "id": 108.0, "distrito_i": 19, "nombre_dis": "San Emigdio", "municipio": "LP_CENTRO", "departamen": "La Paz", "anio": null, "total_dese": 490.0, "porcentaje": 0.63 }, "geometry": { "type": "Point", "coordinates": [ -88.992381787040571, 13.649778377203535 ] } },
{ "type": "Feature", "properties": { "id": 109.0, "distrito_i": 41, "nombre_dis": "Ciudad Arce", "municipio": "LL_CENTRO", "departamen": "La Libertad", "anio": null, "total_dese": 1902.0, "porcentaje": 2.44 }, "geometry": { "type": "Point", "coordinates": [ -89.423996266132178, 13.814255718778384 ] } },
{ "type": "Feature", "properties": { "id": 110.0, "distrito_i": 40, "nombre_dis": "Rosario De Mora", "municipio": "SS_SUR", "departamen": "San Salvador", "anio": null, "total_dese": 201.0, "porcentaje": 0.26 }, "geometry": { "type": "Point", "coordinates": [ -89.206298255176719, 13.539808535353398 ] } },
{ "type": "Feature", "properties": { "id": 111.0, "distrito_i": 20, "nombre_dis": "Cuscatancingo", "municipio": "SS_ESTE", "departamen": "San Salvador", "anio": null, "total_dese": 1153.0, "porcentaje": 1.48 }, "geometry": { "type": "Point", "coordinates": [ -89.177880739771581, 13.730732612097876 ] } },
{ "type": "Feature", "properties": { "id": 112.0, "distrito_i": 39, "nombre_dis": "San Juan Talpa", "municipio": "LP_OESTE", "departamen": "La Paz", "anio": null, "total_dese": 1139.0, "porcentaje": 1.46 }, "geometry": { "type": "Point", "coordinates": [ -89.090359746442402, 13.499191968903707 ] } },
{ "type": "Feature", "properties": { "id": 113.0, "distrito_i": 21, "nombre_dis": "Santa María Ostuma", "municipio": "LP_CENTRO", "departamen": "La Paz", "anio": null, "total_dese": 510.0, "porcentaje": 0.65 }, "geometry": { "type": "Point", "coordinates": [ -88.926518228995505, 13.625972350993607 ] } },
{ "type": "Feature", "properties": { "id": 114.0, "distrito_i": 38, "nombre_dis": "Cuyultitán", "municipio": "LP_OESTE", "departamen": "La Paz", "anio": null, "total_dese": 797.0, "porcentaje": 1.02 }, "geometry": { "type": "Point", "coordinates": [ -89.091192634935666, 13.537676235774381 ] } },
{ "type": "Feature", "properties": { "id": 115.0, "distrito_i": 22, "nombre_dis": "San Rafael Obrajuelo", "municipio": "LP_ESTE", "departamen": "La Paz", "anio": null, "total_dese": 800.0, "porcentaje": 1.02 }, "geometry": { "type": "Point", "coordinates": [ -88.921748245946773, 13.494522336012833 ] } },
{ "type": "Feature", "properties": { "id": 116.0, "distrito_i": 3, "nombre_dis": "San Matías", "municipio": "LL_NORTE", "departamen": "La Libertad", "anio": null, "total_dese": 505.0, "porcentaje": 0.65 }, "geometry": { "type": "Point", "coordinates": [ -89.306135594839446, 13.899514485284268 ] } },
{ "type": "Feature", "properties": { "id": 117.0, "distrito_i": 37, "nombre_dis": "Talnique", "municipio": "LL_OESTE", "departamen": "La Libertad", "anio": null, "total_dese": 676.0, "porcentaje": 0.87 }, "geometry": { "type": "Point", "coordinates": [ -89.396238680920874, 13.675073006768327 ] } },
{ "type": "Feature", "properties": { "id": 118.0, "distrito_i": 23, "nombre_dis": "San Martín", "municipio": "SS_ESTE", "departamen": "San Salvador", "anio": null, "total_dese": 1609.0, "porcentaje": 2.06 }, "geometry": { "type": "Point", "coordinates": [ -89.062046409043504, 13.735125893975415 ] } },
{ "type": "Feature", "properties": { "id": 119.0, "distrito_i": 36, "nombre_dis": "Delgado", "municipio": "SS_ESTE", "departamen": "San Salvador", "anio": null, "total_dese": 1410.0, "porcentaje": 1.81 }, "geometry": { "type": "Point", "coordinates": [ -89.160325955587581, 13.755155299169184 ] } },
{ "type": "Feature", "properties": { "id": 120.0, "distrito_i": 35, "nombre_dis": "San Miguel Tepezontes", "municipio": "LP_CENTRO", "departamen": "La Paz", "anio": null, "total_dese": 498.0, "porcentaje": 0.64 }, "geometry": { "type": "Point", "coordinates": [ -89.019229766698487, 13.63183294504425 ] } },
{ "type": "Feature", "properties": { "id": 121.0, "distrito_i": 24, "nombre_dis": "Soyapango", "municipio": "SS_ESTE", "departamen": "San Salvador", "anio": null, "total_dese": 4241.0, "porcentaje": 5.43 }, "geometry": { "type": "Point", "coordinates": [ -89.143453849141522, 13.703777189278172 ] } },
{ "type": "Feature", "properties": { "id": 122.0, "distrito_i": 34, "nombre_dis": "Tapalhuaca", "municipio": "LP_OESTE", "departamen": "La Paz", "anio": null, "total_dese": 701.0, "porcentaje": 0.9 }, "geometry": { "type": "Point", "coordinates": [ -89.067134232059161, 13.548945944954532 ] } },
{ "type": "Feature", "properties": { "id": 123.0, "distrito_i": 25, "nombre_dis": "San Luis La Herradura", "municipio": "LP_CENTRO", "departamen": "La Paz", "anio": null, "total_dese": 1390.0, "porcentaje": 1.78 }, "geometry": { "type": "Point", "coordinates": [ -88.913371501531415, 13.333261548866092 ] } },
{ "type": "Feature", "properties": { "id": 124.0, "distrito_i": 33, "nombre_dis": "San Pedro Nonualco", "municipio": "LP_CENTRO", "departamen": "La Paz", "anio": null, "total_dese": 771.0, "porcentaje": 0.99 }, "geometry": { "type": "Point", "coordinates": [ -88.934831917172048, 13.591295562139871 ] } },
{ "type": "Feature", "properties": { "id": 125.0, "distrito_i": 4, "nombre_dis": "Tamanique", "municipio": "LL_COSTA", "departamen": "La Libertad", "anio": null, "total_dese": 239.0, "porcentaje": 0.34 }, "geometry": { "type": "Point", "coordinates": [ -89.411616402578744, 13.563902424971866 ] } },
{ "type": "Feature", "properties": { "id": 126.0, "distrito_i": 30, "nombre_dis": "San Pablo Tacachico", "municipio": "LL_NORTE", "departamen": "La Libertad", "anio": null, "total_dese": 543.0, "porcentaje": 0.76 }, "geometry": { "type": "Point", "coordinates": [ -89.330760940863698, 13.999557644210299 ] } },
{ "type": "Feature", "properties": { "id": 127.0, "distrito_i": 40, "nombre_dis": "Rosario De Mora", "municipio": "SS_SUR", "departamen": "San Salvador", "anio": null, "total_dese": 185.0, "porcentaje": 0.26 }, "geometry": { "type": "Point", "coordinates": [ -89.206298255176719, 13.539808535353398 ] } },
{ "type": "Feature", "properties": { "id": 128.0, "distrito_i": 59, "nombre_dis": "Nuevo Cuscatlán", "municipio": "LL_ESTE", "departamen": "La Libertad", "anio": null, "total_dese": 648.0, "porcentaje": 0.91 }, "geometry": { "type": "Point", "coordinates": [ -89.265753031975109, 13.643098273389553 ] } },
{ "type": "Feature", "properties": { "id": 129.0, "distrito_i": 61, "nombre_dis": "Olocuilta", "municipio": "LP_OESTE", "departamen": "La Paz", "anio": null, "total_dese": 2951.0, "porcentaje": 4.15 }, "geometry": { "type": "Point", "coordinates": [ -89.127111575671947, 13.539110285464742 ] } },
{ "type": "Feature", "properties": { "id": 130.0, "distrito_i": 58, "nombre_dis": "Colón", "municipio": "LL_OESTE", "departamen": "La Libertad", "anio": null, "total_dese": 2543.0, "porcentaje": 3.57 }, "geometry": { "type": "Point", "coordinates": [ -89.35847055005479, 13.724475559713939 ] } },
{ "type": "Feature", "properties": { "id": 131.0, "distrito_i": 20, "nombre_dis": "Cuscatancingo", "municipio": "SS_ESTE", "departamen": "San Salvador", "anio": null, "total_dese": 1080.0, "porcentaje": 1.52 }, "geometry": { "type": "Point", "coordinates": [ -89.177880739771581, 13.730732612097876 ] } },
{ "type": "Feature", "properties": { "id": 132.0, "distrito_i": 45, "nombre_dis": "San Juan Nonualco", "municipio": "LP_ESTE", "departamen": "La Paz", "anio": null, "total_dese": 2036.0, "porcentaje": 2.86 }, "geometry": { "type": "Point", "coordinates": [ -88.905277136785401, 13.503095592612924 ] } },
{ "type": "Feature", "properties": { "id": 133.0, "distrito_i": 62, "nombre_dis": "San Salvador", "municipio": "SS_CENTRO", "departamen": "San Salvador", "anio": null, "total_dese": 4443.0, "porcentaje": 6.24 }, "geometry": { "type": "Point", "coordinates": [ -89.215557345956526, 13.693433386228698 ] } },
{ "type": "Feature", "properties": { "id": 134.0, "distrito_i": 25, "nombre_dis": "San Luis La Herradura", "municipio": "LP_CENTRO", "departamen": "La Paz", "anio": null, "total_dese": 1194.0, "porcentaje": 1.68 }, "geometry": { "type": "Point", "coordinates": [ -88.913371501531415, 13.333261548866092 ] } },
{ "type": "Feature", "properties": { "id": 135.0, "distrito_i": 57, "nombre_dis": "Sacacoyo", "municipio": "LL_OESTE", "departamen": "La Libertad", "anio": null, "total_dese": 283.0, "porcentaje": 0.4 }, "geometry": { "type": "Point", "coordinates": [ -89.443517649074707, 13.74675700816738 ] } },
{ "type": "Feature", "properties": { "id": 136.0, "distrito_i": 39, "nombre_dis": "San Juan Talpa", "municipio": "LP_OESTE", "departamen": "La Paz", "anio": null, "total_dese": 1003.0, "porcentaje": 1.41 }, "geometry": { "type": "Point", "coordinates": [ -89.090359746442402, 13.499191968903707 ] } },
{ "type": "Feature", "properties": { "id": 137.0, "distrito_i": 47, "nombre_dis": "Jayaque", "municipio": "LL_OESTE", "departamen": "La Libertad", "anio": null, "total_dese": 300.0, "porcentaje": 0.42 }, "geometry": { "type": "Point", "coordinates": [ -89.444656976706085, 13.677728970758274 ] } },
{ "type": "Feature", "properties": { "id": 138.0, "distrito_i": 64, "nombre_dis": "Quezaltepeque", "municipio": "LL_NORTE", "departamen": "La Libertad", "anio": null, "total_dese": 2482.0, "porcentaje": 3.49 }, "geometry": { "type": "Point", "coordinates": [ -89.273780056561691, 13.850797205483703 ] } },
{ "type": "Feature", "properties": { "id": 139.0, "distrito_i": 28, "nombre_dis": "San Pedro Masahuat", "municipio": "LP_OESTE", "departamen": "La Paz", "anio": null, "total_dese": 1068.0, "porcentaje": 1.5 }, "geometry": { "type": "Point", "coordinates": [ -89.029682481331506, 13.450971283861213 ] } },
{ "type": "Feature", "properties": { "id": 140.0, "distrito_i": 17, "nombre_dis": "Santo Tomás", "municipio": "SS_CENTRO", "departamen": "San Salvador", "anio": null, "total_dese": 424.0, "porcentaje": 0.6 }, "geometry": { "type": "Point", "coordinates": [ -89.143507967660597, 13.640337332489858 ] } },
{ "type": "Feature", "properties": { "id": 141.0, "distrito_i": 21, "nombre_dis": "Santa María Ostuma", "municipio": "LP_CENTRO", "departamen": "La Paz", "anio": null, "total_dese": 509.0, "porcentaje": 0.72 }, "geometry": { "type": "Point", "coordinates": [ -88.926518228995505, 13.625972350993607 ] } },
{ "type": "Feature", "properties": { "id": 142.0, "distrito_i": 33, "nombre_dis": "San Pedro Nonualco", "municipio": "LP_CENTRO", "departamen": "La Paz", "anio": null, "total_dese": 813.0, "porcentaje": 1.14 }, "geometry": { "type": "Point", "coordinates": [ -88.934831917172048, 13.591295562139871 ] } },
{ "type": "Feature", "properties": { "id": 143.0, "distrito_i": 29, "nombre_dis": "San Luis Talpa", "municipio": "LP_OESTE", "departamen": "La Paz", "anio": null, "total_dese": 1498.0, "porcentaje": 2.1 }, "geometry": { "type": "Point", "coordinates": [ -89.096976430871209, 13.435807171389621 ] } },
{ "type": "Feature", "properties": { "id": 144.0, "distrito_i": 15, "nombre_dis": "Jicalapa", "municipio": "LL_COSTA", "departamen": "La Libertad", "anio": null, "total_dese": 206.0, "porcentaje": 0.29 }, "geometry": { "type": "Point", "coordinates": [ -89.516369353052582, 13.53403142057169 ] } },
{ "type": "Feature", "properties": { "id": 145.0, "distrito_i": 38, "nombre_dis": "Cuyultitán", "municipio": "LP_OESTE", "departamen": "La Paz", "anio": null, "total_dese": 723.0, "porcentaje": 1.02 }, "geometry": { "type": "Point", "coordinates": [ -89.091192634935666, 13.537676235774381 ] } },
{ "type": "Feature", "properties": { "id": 146.0, "distrito_i": 34, "nombre_dis": "Tapalhuaca", "municipio": "LP_OESTE", "departamen": "La Paz", "anio": null, "total_dese": 566.0, "porcentaje": 0.8 }, "geometry": { "type": "Point", "coordinates": [ -89.067134232059161, 13.548945944954532 ] } },
{ "type": "Feature", "properties": { "id": 147.0, "distrito_i": 36, "nombre_dis": "Delgado", "municipio": "SS_ESTE", "departamen": "San Salvador", "anio": null, "total_dese": 1528.0, "porcentaje": 2.15 }, "geometry": { "type": "Point", "coordinates": [ -89.160325955587581, 13.755155299169184 ] } },
{ "type": "Feature", "properties": { "id": 148.0, "distrito_i": 44, "nombre_dis": "Tepecoyo", "municipio": "LL_OESTE", "departamen": "La Libertad", "anio": null, "total_dese": 247.0, "porcentaje": 0.35 }, "geometry": { "type": "Point", "coordinates": [ -89.489030691454388, 13.692204582189408 ] } },
{ "type": "Feature", "properties": { "id": 149.0, "distrito_i": 54, "nombre_dis": "San Francisco Chinameca", "municipio": "LP_OESTE", "departamen": "La Paz", "anio": null, "total_dese": 372.0, "porcentaje": 0.52 }, "geometry": { "type": "Point", "coordinates": [ -89.072905083037696, 13.612946402830245 ] } },
{ "type": "Feature", "properties": { "id": 150.0, "distrito_i": 35, "nombre_dis": "San Miguel Tepezontes", "municipio": "LP_CENTRO", "departamen": "La Paz", "anio": null, "total_dese": 554.0, "porcentaje": 0.78 }, "geometry": { "type": "Point", "coordinates": [ -89.019229766698487, 13.63183294504425 ] } },
{ "type": "Feature", "properties": { "id": 151.0, "distrito_i": 63, "nombre_dis": "San José Villanueva", "municipio": "LL_ESTE", "departamen": "La Libertad", "anio": null, "total_dese": 390.0, "porcentaje": 0.55 }, "geometry": { "type": "Point", "coordinates": [ -89.270749889321152, 13.558661851993948 ] } },
{ "type": "Feature", "properties": { "id": 152.0, "distrito_i": 23, "nombre_dis": "San Martín", "municipio": "SS_ESTE", "departamen": "San Salvador", "anio": null, "total_dese": 1718.0, "porcentaje": 2.41 }, "geometry": { "type": "Point", "coordinates": [ -89.062046409043504, 13.735125893975415 ] } },
{ "type": "Feature", "properties": { "id": 153.0, "distrito_i": 9, "nombre_dis": "Mercedes La Ceiba", "municipio": "LP_CENTRO", "departamen": "La Paz", "anio": null, "total_dese": 486.0, "porcentaje": 0.68 }, "geometry": { "type": "Point", "coordinates": [ -88.914294226135169, 13.644706359919478 ] } },
{ "type": "Feature", "properties": { "id": 154.0, "distrito_i": 5, "nombre_dis": "San Antonio Masahuat", "municipio": "LP_CENTRO", "departamen": "La Paz", "anio": null, "total_dese": 596.0, "porcentaje": 0.84 }, "geometry": { "type": "Point", "coordinates": [ -89.021258326053754, 13.572042056588906 ] } },
{ "type": "Feature", "properties": { "id": 155.0, "distrito_i": 10, "nombre_dis": "El Rosario", "municipio": "LP_CENTRO", "departamen": "La Paz", "anio": null, "total_dese": 1142.0, "porcentaje": 1.6 }, "geometry": { "type": "Point", "coordinates": [ -89.004590724038536, 13.469144945254312 ] } },
{ "type": "Feature", "properties": { "id": 156.0, "distrito_i": 14, "nombre_dis": "Mejicanos", "municipio": "SS_CENTRO", "departamen": "San Salvador", "anio": null, "total_dese": 2860.0, "porcentaje": 4.02 }, "geometry": { "type": "Point", "coordinates": [ -89.218784666588803, 13.737886615764458 ] } },
{ "type": "Feature", "properties": { "id": 157.0, "distrito_i": 55, "nombre_dis": "Santa Tecla", "municipio": "LL_SUR", "departamen": "La Libertad", "anio": null, "total_dese": 3780.0, "porcentaje": 5.31 }, "geometry": { "type": "Point", "coordinates": [ -89.3092936964986, 13.64783576482407 ] } },
{ "type": "Feature", "properties": { "id": 158.0, "distrito_i": 53, "nombre_dis": "Guazapa", "municipio": "SS_NORTE", "departamen": "San Salvador", "anio": null, "total_dese": 646.0, "porcentaje": 0.91 }, "geometry": { "type": "Point", "coordinates": [ -89.166620726822259, 13.897184452900092 ] } },
{ "type": "Feature", "properties": { "id": 159.0, "distrito_i": 18, "nombre_dis": "Santiago Nonualco", "municipio": "LP_CENTRO", "departamen": "La Paz", "anio": null, "total_dese": 2045.0, "porcentaje": 2.87 }, "geometry": { "type": "Point", "coordinates": [ -88.959283540327007, 13.470583405871963 ] } },
{ "type": "Feature", "properties": { "id": 160.0, "distrito_i": 49, "nombre_dis": "Teotepeque", "municipio": "LL_COSTA", "departamen": "La Libertad", "anio": null, "total_dese": 186.0, "porcentaje": 0.26 }, "geometry": { "type": "Point", "coordinates": [ -89.543374356396043, 13.576690757421156 ] } },
{ "type": "Feature", "properties": { "id": 161.0, "distrito_i": 60, "nombre_dis": "Tonacatepeque", "municipio": "SS_ESTE", "departamen": "San Salvador", "anio": null, "total_dese": 619.0, "porcentaje": 0.87 }, "geometry": { "type": "Point", "coordinates": [ -89.118914089118078, 13.783230398634702 ] } },
{ "type": "Feature", "properties": { "id": 162.0, "distrito_i": 52, "nombre_dis": "San Marcos", "municipio": "SS_CENTRO", "departamen": "San Salvador", "anio": null, "total_dese": 909.0, "porcentaje": 1.28 }, "geometry": { "type": "Point", "coordinates": [ -89.228031369188074, 13.640880021963762 ] } },
{ "type": "Feature", "properties": { "id": 163.0, "distrito_i": 43, "nombre_dis": "Jerusalén", "municipio": "LP_CENTRO", "departamen": "La Paz", "anio": null, "total_dese": 385.0, "porcentaje": 0.54 }, "geometry": { "type": "Point", "coordinates": [ -88.911166532205229, 13.654496392721276 ] } },
{ "type": "Feature", "properties": { "id": 164.0, "distrito_i": 31, "nombre_dis": "La Libertad", "municipio": "LL_COSTA", "departamen": "La Libertad", "anio": null, "total_dese": 2750.0, "porcentaje": 3.86 }, "geometry": { "type": "Point", "coordinates": [ -89.264363936184125, 13.490338468999985 ] } },
{ "type": "Feature", "properties": { "id": 165.0, "distrito_i": 11, "nombre_dis": "Panchimalco", "municipio": "SS_SUR", "departamen": "San Salvador", "anio": null, "total_dese": 322.0, "porcentaje": 0.45 }, "geometry": { "type": "Point", "coordinates": [ -89.177709759128973, 13.572361852985443 ] } },
{ "type": "Feature", "properties": { "id": 166.0, "distrito_i": 46, "nombre_dis": "Santiago Texacuangos", "municipio": "SS_CENTRO", "departamen": "San Salvador", "anio": null, "total_dese": 503.0, "porcentaje": 0.71 }, "geometry": { "type": "Point", "coordinates": [ -89.09518647510221, 13.649934212964384 ] } },
{ "type": "Feature", "properties": { "id": 167.0, "distrito_i": 22, "nombre_dis": "San Rafael Obrajuelo", "municipio": "LP_ESTE", "departamen": "La Paz", "anio": null, "total_dese": 754.0, "porcentaje": 1.06 }, "geometry": { "type": "Point", "coordinates": [ -88.921748245946773, 13.494522336012833 ] } },
{ "type": "Feature", "properties": { "id": 168.0, "distrito_i": 1, "nombre_dis": "El Paisnal", "municipio": "SS_NORTE", "departamen": "San Salvador", "anio": null, "total_dese": 335.0, "porcentaje": 0.47 }, "geometry": { "type": "Point", "coordinates": [ -89.219449405481427, 14.008455202242615 ] } },
{ "type": "Feature", "properties": { "id": 169.0, "distrito_i": 8, "nombre_dis": "Comasagua", "municipio": "LL_SUR", "departamen": "La Libertad", "anio": null, "total_dese": 248.0, "porcentaje": 0.35 }, "geometry": { "type": "Point", "coordinates": [ -89.365206935041712, 13.607104323779247 ] } },
{ "type": "Feature", "properties": { "id": 170.0, "distrito_i": 41, "nombre_dis": "Ciudad Arce", "municipio": "LL_CENTRO", "departamen": "La Libertad", "anio": null, "total_dese": 1488.0, "porcentaje": 2.09 }, "geometry": { "type": "Point", "coordinates": [ -89.423996266132178, 13.814255718778384 ] } },
{ "type": "Feature", "properties": { "id": 171.0, "distrito_i": 51, "nombre_dis": "Antiguo Cuscatlán", "municipio": "LL_ESTE", "departamen": "La Libertad", "anio": null, "total_dese": 1144.0, "porcentaje": 1.61 }, "geometry": { "type": "Point", "coordinates": [ -89.252940018858908, 13.674067207176597 ] } },
{ "type": "Feature", "properties": { "id": 172.0, "distrito_i": 26, "nombre_dis": "Huizúcar", "municipio": "LL_ESTE", "departamen": "La Libertad", "anio": null, "total_dese": 211.0, "porcentaje": 0.3 }, "geometry": { "type": "Point", "coordinates": [ -89.24261374919304, 13.574620748727474 ] } },
{ "type": "Feature", "properties": { "id": 173.0, "distrito_i": 56, "nombre_dis": "Zaragoza", "municipio": "LL_ESTE", "departamen": "La Libertad", "anio": null, "total_dese": 1538.0, "porcentaje": 2.16 }, "geometry": { "type": "Point", "coordinates": [ -89.297370465996622, 13.575376773507037 ] } },
{ "type": "Feature", "properties": { "id": 174.0, "distrito_i": 37, "nombre_dis": "Talnique", "municipio": "LL_OESTE", "departamen": "La Libertad", "anio": null, "total_dese": 567.0, "porcentaje": 0.8 }, "geometry": { "type": "Point", "coordinates": [ -89.396238680920874, 13.675073006768327 ] } },
{ "type": "Feature", "properties": { "id": 175.0, "distrito_i": 12, "nombre_dis": "Nejapa", "municipio": "SS_OESTE", "departamen": "San Salvador", "anio": null, "total_dese": 861.0, "porcentaje": 1.21 }, "geometry": { "type": "Point", "coordinates": [ -89.22627714654206, 13.840025565863982 ] } },
{ "type": "Feature", "properties": { "id": 176.0, "distrito_i": 6, "nombre_dis": "Chiltiupán", "municipio": "LL_COSTA", "departamen": "La Libertad", "anio": null, "total_dese": 269.0, "porcentaje": 0.38 }, "geometry": { "type": "Point", "coordinates": [ -89.463978243276372, 13.563906026964119 ] } },
{ "type": "Feature", "properties": { "id": 177.0, "distrito_i": 2, "nombre_dis": "San Juan Opico", "municipio": "LL_CENTRO", "departamen": "La Libertad", "anio": null, "total_dese": 1732.0, "porcentaje": 2.43 }, "geometry": { "type": "Point", "coordinates": [ -89.368313107948509, 13.860001166367784 ] } },
{ "type": "Feature", "properties": { "id": 178.0, "distrito_i": 3, "nombre_dis": "San Matías", "municipio": "LL_NORTE", "departamen": "La Libertad", "anio": null, "total_dese": 421.0, "porcentaje": 0.59 }, "geometry": { "type": "Point", "coordinates": [ -89.306135594839446, 13.899514485284268 ] } },
{ "type": "Feature", "properties": { "id": 179.0, "distrito_i": 19, "nombre_dis": "San Emigdio", "municipio": "LP_CENTRO", "departamen": "La Paz", "anio": null, "total_dese": 424.0, "porcentaje": 0.6 }, "geometry": { "type": "Point", "coordinates": [ -88.992381787040571, 13.649778377203535 ] } },
{ "type": "Feature", "properties": { "id": 180.0, "distrito_i": 50, "nombre_dis": "Ilopango", "municipio": "SS_ESTE", "departamen": "San Salvador", "anio": null, "total_dese": 2165.0, "porcentaje": 3.04 }, "geometry": { "type": "Point", "coordinates": [ -89.095428116379864, 13.692355396508134 ] } },
{ "type": "Feature", "properties": { "id": 181.0, "distrito_i": 16, "nombre_dis": "Ayutuxtepeque", "municipio": "SS_OESTE", "departamen": "San Salvador", "anio": null, "total_dese": 1023.0, "porcentaje": 1.44 }, "geometry": { "type": "Point", "coordinates": [ -89.201749629048479, 13.754500961801114 ] } },
{ "type": "Feature", "properties": { "id": 182.0, "distrito_i": 48, "nombre_dis": "Aguilares", "municipio": "SS_NORTE", "departamen": "San Salvador", "anio": null, "total_dese": 824.0, "porcentaje": 1.16 }, "geometry": { "type": "Point", "coordinates": [ -89.197360689137852, 13.955039247662924 ] } },
{ "type": "Feature", "properties": { "id": 183.0, "distrito_i": 7, "nombre_dis": "Zacatecoluca", "municipio": "LP_ESTE", "departamen": "La Paz", "anio": null, "total_dese": 3186.0, "porcentaje": 4.48 }, "geometry": { "type": "Point", "coordinates": [ -88.850757252282946, 13.431007042470963 ] } },
{ "type": "Feature", "properties": { "id": 184.0, "distrito_i": 27, "nombre_dis": "Apopa", "municipio": "SS_OESTE", "departamen": "San Salvador", "anio": null, "total_dese": 2216.0, "porcentaje": 3.11 }, "geometry": { "type": "Point", "coordinates": [ -89.196972190845955, 13.799417549705316 ] } },
{ "type": "Feature", "properties": { "id": 185.0, "distrito_i": 13, "nombre_dis": "San Juan Tepezontes", "municipio": "LP_CENTRO", "departamen": "La Paz", "anio": null, "total_dese": 516.0, "porcentaje": 0.72 }, "geometry": { "type": "Point", "coordinates": [ -88.994511282663495, 13.598744489579879 ] } },
{ "type": "Feature", "properties": { "id": 186.0, "distrito_i": 24, "nombre_dis": "Soyapango", "municipio": "SS_ESTE", "departamen": "San Salvador", "anio": null, "total_dese": 3478.0, "porcentaje": 4.89 }, "geometry": { "type": "Point", "coordinates": [ -89.143453849141522, 13.703777189278172 ] } },
{ "type": "Feature", "properties": { "id": 187.0, "distrito_i": 13, "nombre_dis": "San Juan Tepezontes", "municipio": "LP_CENTRO", "departamen": "La Paz", "anio": null, "total_dese": 311.0, "porcentaje": 0.7 }, "geometry": { "type": "Point", "coordinates": [ -88.994511282663495, 13.598744489579879 ] } },
{ "type": "Feature", "properties": { "id": 188.0, "distrito_i": 49, "nombre_dis": "Teotepeque", "municipio": "LL_COSTA", "departamen": "La Libertad", "anio": null, "total_dese": 123.0, "porcentaje": 0.28 }, "geometry": { "type": "Point", "coordinates": [ -89.543374356396043, 13.576690757421156 ] } },
{ "type": "Feature", "properties": { "id": 189.0, "distrito_i": 36, "nombre_dis": "Delgado", "municipio": "SS_ESTE", "departamen": "San Salvador", "anio": null, "total_dese": 907.0, "porcentaje": 2.05 }, "geometry": { "type": "Point", "coordinates": [ -89.160325955587581, 13.755155299169184 ] } },
{ "type": "Feature", "properties": { "id": 190.0, "distrito_i": 48, "nombre_dis": "Aguilares", "municipio": "SS_NORTE", "departamen": "San Salvador", "anio": null, "total_dese": 520.0, "porcentaje": 1.18 }, "geometry": { "type": "Point", "coordinates": [ -89.197360689137852, 13.955039247662924 ] } },
{ "type": "Feature", "properties": { "id": 191.0, "distrito_i": 57, "nombre_dis": "Sacacoyo", "municipio": "LL_OESTE", "departamen": "La Libertad", "anio": null, "total_dese": 213.0, "porcentaje": 0.48 }, "geometry": { "type": "Point", "coordinates": [ -89.443517649074707, 13.74675700816738 ] } },
{ "type": "Feature", "properties": { "id": 192.0, "distrito_i": 14, "nombre_dis": "Mejicanos", "municipio": "SS_CENTRO", "departamen": "San Salvador", "anio": null, "total_dese": 1876.0, "porcentaje": 4.24 }, "geometry": { "type": "Point", "coordinates": [ -89.218784666588803, 13.737886615764458 ] } },
{ "type": "Feature", "properties": { "id": 193.0, "distrito_i": 47, "nombre_dis": "Jayaque", "municipio": "LL_OESTE", "departamen": "La Libertad", "anio": null, "total_dese": 255.0, "porcentaje": 0.58 }, "geometry": { "type": "Point", "coordinates": [ -89.444656976706085, 13.677728970758274 ] } },
{ "type": "Feature", "properties": { "id": 194.0, "distrito_i": 15, "nombre_dis": "Jicalapa", "municipio": "LL_COSTA", "departamen": "La Libertad", "anio": null, "total_dese": 112.0, "porcentaje": 0.25 }, "geometry": { "type": "Point", "coordinates": [ -89.516369353052582, 13.53403142057169 ] } },
{ "type": "Feature", "properties": { "id": 195.0, "distrito_i": 6, "nombre_dis": "Chiltiupán", "municipio": "LL_COSTA", "departamen": "La Libertad", "anio": null, "total_dese": 193.0, "porcentaje": 0.44 }, "geometry": { "type": "Point", "coordinates": [ -89.463978243276372, 13.563906026964119 ] } },
{ "type": "Feature", "properties": { "id": 196.0, "distrito_i": 46, "nombre_dis": "Santiago Texacuangos", "municipio": "SS_CENTRO", "departamen": "San Salvador", "anio": null, "total_dese": 304.0, "porcentaje": 0.69 }, "geometry": { "type": "Point", "coordinates": [ -89.09518647510221, 13.649934212964384 ] } },
{ "type": "Feature", "properties": { "id": 197.0, "distrito_i": 23, "nombre_dis": "San Martín", "municipio": "SS_ESTE", "departamen": "San Salvador", "anio": null, "total_dese": 1169.0, "porcentaje": 2.64 }, "geometry": { "type": "Point", "coordinates": [ -89.062046409043504, 13.735125893975415 ] } },
{ "type": "Feature", "properties": { "id": 198.0, "distrito_i": 16, "nombre_dis": "Ayutuxtepeque", "municipio": "SS_OESTE", "departamen": "San Salvador", "anio": null, "total_dese": 698.0, "porcentaje": 1.58 }, "geometry": { "type": "Point", "coordinates": [ -89.201749629048479, 13.754500961801114 ] } },
{ "type": "Feature", "properties": { "id": 199.0, "distrito_i": 58, "nombre_dis": "Colón", "municipio": "LL_OESTE", "departamen": "La Libertad", "anio": null, "total_dese": 1634.0, "porcentaje": 3.7 }, "geometry": { "type": "Point", "coordinates": [ -89.35847055005479, 13.724475559713939 ] } },
{ "type": "Feature", "properties": { "id": 200.0, "distrito_i": 45, "nombre_dis": "San Juan Nonualco", "municipio": "LP_ESTE", "departamen": "La Paz", "anio": null, "total_dese": 1072.0, "porcentaje": 2.42 }, "geometry": { "type": "Point", "coordinates": [ -88.905277136785401, 13.503095592612924 ] } },
{ "type": "Feature", "properties": { "id": 201.0, "distrito_i": 59, "nombre_dis": "Nuevo Cuscatlán", "municipio": "LL_ESTE", "departamen": "La Libertad", "anio": null, "total_dese": 496.0, "porcentaje": 1.12 }, "geometry": { "type": "Point", "coordinates": [ -89.265753031975109, 13.643098273389553 ] } },
{ "type": "Feature", "properties": { "id": 202.0, "distrito_i": 64, "nombre_dis": "Quezaltepeque", "municipio": "LL_NORTE", "departamen": "La Libertad", "anio": null, "total_dese": 1410.0, "porcentaje": 3.19 }, "geometry": { "type": "Point", "coordinates": [ -89.273780056561691, 13.850797205483703 ] } },
{ "type": "Feature", "properties": { "id": 203.0, "distrito_i": 30, "nombre_dis": "San Pablo Tacachico", "municipio": "LL_NORTE", "departamen": "La Libertad", "anio": null, "total_dese": 405.0, "porcentaje": 0.92 }, "geometry": { "type": "Point", "coordinates": [ -89.330760940863698, 13.999557644210299 ] } },
{ "type": "Feature", "properties": { "id": 204.0, "distrito_i": 17, "nombre_dis": "Santo Tomás", "municipio": "SS_CENTRO", "departamen": "San Salvador", "anio": null, "total_dese": 301.0, "porcentaje": 0.68 }, "geometry": { "type": "Point", "coordinates": [ -89.143507967660597, 13.640337332489858 ] } },
{ "type": "Feature", "properties": { "id": 205.0, "distrito_i": 35, "nombre_dis": "San Miguel Tepezontes", "municipio": "LP_CENTRO", "departamen": "La Paz", "anio": null, "total_dese": 291.0, "porcentaje": 0.66 }, "geometry": { "type": "Point", "coordinates": [ -89.019229766698487, 13.63183294504425 ] } },
{ "type": "Feature", "properties": { "id": 206.0, "distrito_i": 44, "nombre_dis": "Tepecoyo", "municipio": "LL_OESTE", "departamen": "La Libertad", "anio": null, "total_dese": 135.0, "porcentaje": 0.31 }, "geometry": { "type": "Point", "coordinates": [ -89.489030691454388, 13.692204582189408 ] } },
{ "type": "Feature", "properties": { "id": 207.0, "distrito_i": 5, "nombre_dis": "San Antonio Masahuat", "municipio": "LP_CENTRO", "departamen": "La Paz", "anio": null, "total_dese": 336.0, "porcentaje": 0.76 }, "geometry": { "type": "Point", "coordinates": [ -89.021258326053754, 13.572042056588906 ] } },
{ "type": "Feature", "properties": { "id": 208.0, "distrito_i": 43, "nombre_dis": "Jerusalén", "municipio": "LP_CENTRO", "departamen": "La Paz", "anio": null, "total_dese": 226.0, "porcentaje": 0.51 }, "geometry": { "type": "Point", "coordinates": [ -88.911166532205229, 13.654496392721276 ] } },
{ "type": "Feature", "properties": { "id": 209.0, "distrito_i": 25, "nombre_dis": "San Luis La Herradura", "municipio": "LP_CENTRO", "departamen": "La Paz", "anio": null, "total_dese": 646.0, "porcentaje": 1.46 }, "geometry": { "type": "Point", "coordinates": [ -88.913371501531415, 13.333261548866092 ] } },
{ "type": "Feature", "properties": { "id": 210.0, "distrito_i": 18, "nombre_dis": "Santiago Nonualco", "municipio": "LP_CENTRO", "departamen": "La Paz", "anio": null, "total_dese": 1272.0, "porcentaje": 2.88 }, "geometry": { "type": "Point", "coordinates": [ -88.959283540327007, 13.470583405871963 ] } },
{ "type": "Feature", "properties": { "id": 211.0, "distrito_i": 60, "nombre_dis": "Tonacatepeque", "municipio": "SS_ESTE", "departamen": "San Salvador", "anio": null, "total_dese": 396.0, "porcentaje": 0.9 }, "geometry": { "type": "Point", "coordinates": [ -89.118914089118078, 13.783230398634702 ] } },
{ "type": "Feature", "properties": { "id": 212.0, "distrito_i": 41, "nombre_dis": "Ciudad Arce", "municipio": "LL_CENTRO", "departamen": "La Libertad", "anio": null, "total_dese": 1171.0, "porcentaje": 2.65 }, "geometry": { "type": "Point", "coordinates": [ -89.423996266132178, 13.814255718778384 ] } },
{ "type": "Feature", "properties": { "id": 213.0, "distrito_i": 4, "nombre_dis": "Tamanique", "municipio": "LL_COSTA", "departamen": "La Libertad", "anio": null, "total_dese": 121.0, "porcentaje": 0.27 }, "geometry": { "type": "Point", "coordinates": [ -89.411616402578744, 13.563902424971866 ] } },
{ "type": "Feature", "properties": { "id": 214.0, "distrito_i": 1, "nombre_dis": "El Paisnal", "municipio": "SS_NORTE", "departamen": "San Salvador", "anio": null, "total_dese": 219.0, "porcentaje": 0.5 }, "geometry": { "type": "Point", "coordinates": [ -89.219449405481427, 14.008455202242615 ] } },
{ "type": "Feature", "properties": { "id": 215.0, "distrito_i": 19, "nombre_dis": "San Emigdio", "municipio": "LP_CENTRO", "departamen": "La Paz", "anio": null, "total_dese": 302.0, "porcentaje": 0.68 }, "geometry": { "type": "Point", "coordinates": [ -88.992381787040571, 13.649778377203535 ] } },
{ "type": "Feature", "properties": { "id": 216.0, "distrito_i": 62, "nombre_dis": "San Salvador", "municipio": "SS_CENTRO", "departamen": "San Salvador", "anio": null, "total_dese": 2763.0, "porcentaje": 6.25 }, "geometry": { "type": "Point", "coordinates": [ -89.215557345956526, 13.693433386228698 ] } },
{ "type": "Feature", "properties": { "id": 217.0, "distrito_i": 40, "nombre_dis": "Rosario De Mora", "municipio": "SS_SUR", "departamen": "San Salvador", "anio": null, "total_dese": 138.0, "porcentaje": 0.31 }, "geometry": { "type": "Point", "coordinates": [ -89.206298255176719, 13.539808535353398 ] } },
{ "type": "Feature", "properties": { "id": 218.0, "distrito_i": 24, "nombre_dis": "Soyapango", "municipio": "SS_ESTE", "departamen": "San Salvador", "anio": null, "total_dese": 1965.0, "porcentaje": 4.44 }, "geometry": { "type": "Point", "coordinates": [ -89.143453849141522, 13.703777189278172 ] } },
{ "type": "Feature", "properties": { "id": 219.0, "distrito_i": 3, "nombre_dis": "San Matías", "municipio": "LL_NORTE", "departamen": "La Libertad", "anio": null, "total_dese": 268.0, "porcentaje": 0.61 }, "geometry": { "type": "Point", "coordinates": [ -89.306135594839446, 13.899514485284268 ] } },
{ "type": "Feature", "properties": { "id": 220.0, "distrito_i": 20, "nombre_dis": "Cuscatancingo", "municipio": "SS_ESTE", "departamen": "San Salvador", "anio": null, "total_dese": 759.0, "porcentaje": 1.72 }, "geometry": { "type": "Point", "coordinates": [ -89.177880739771581, 13.730732612097876 ] } },
{ "type": "Feature", "properties": { "id": 221.0, "distrito_i": 61, "nombre_dis": "Olocuilta", "municipio": "LP_OESTE", "departamen": "La Paz", "anio": null, "total_dese": 1619.0, "porcentaje": 3.66 }, "geometry": { "type": "Point", "coordinates": [ -89.127111575671947, 13.539110285464742 ] } },
{ "type": "Feature", "properties": { "id": 222.0, "distrito_i": 39, "nombre_dis": "San Juan Talpa", "municipio": "LP_OESTE", "departamen": "La Paz", "anio": null, "total_dese": 609.0, "porcentaje": 1.38 }, "geometry": { "type": "Point", "coordinates": [ -89.090359746442402, 13.499191968903707 ] } },
{ "type": "Feature", "properties": { "id": 223.0, "distrito_i": 26, "nombre_dis": "Huizúcar", "municipio": "LL_ESTE", "departamen": "La Libertad", "anio": null, "total_dese": 125.0, "porcentaje": 0.28 }, "geometry": { "type": "Point", "coordinates": [ -89.24261374919304, 13.574620748727474 ] } },
{ "type": "Feature", "properties": { "id": 224.0, "distrito_i": 28, "nombre_dis": "San Pedro Masahuat", "municipio": "LP_OESTE", "departamen": "La Paz", "anio": null, "total_dese": 585.0, "porcentaje": 1.32 }, "geometry": { "type": "Point", "coordinates": [ -89.029682481331506, 13.450971283861213 ] } },
{ "type": "Feature", "properties": { "id": 225.0, "distrito_i": 34, "nombre_dis": "Tapalhuaca", "municipio": "LP_OESTE", "departamen": "La Paz", "anio": null, "total_dese": 365.0, "porcentaje": 0.83 }, "geometry": { "type": "Point", "coordinates": [ -89.067134232059161, 13.548945944954532 ] } },
{ "type": "Feature", "properties": { "id": 226.0, "distrito_i": 21, "nombre_dis": "Santa María Ostuma", "municipio": "LP_CENTRO", "departamen": "La Paz", "anio": null, "total_dese": 309.0, "porcentaje": 0.7 }, "geometry": { "type": "Point", "coordinates": [ -88.926518228995505, 13.625972350993607 ] } },
{ "type": "Feature", "properties": { "id": 227.0, "distrito_i": 38, "nombre_dis": "Cuyultitán", "municipio": "LP_OESTE", "departamen": "La Paz", "anio": null, "total_dese": 491.0, "porcentaje": 1.11 }, "geometry": { "type": "Point", "coordinates": [ -89.091192634935666, 13.537676235774381 ] } },
{ "type": "Feature", "properties": { "id": 228.0, "distrito_i": 63, "nombre_dis": "San José Villanueva", "municipio": "LL_ESTE", "departamen": "La Libertad", "anio": null, "total_dese": 242.0, "porcentaje": 0.55 }, "geometry": { "type": "Point", "coordinates": [ -89.270749889321152, 13.558661851993948 ] } },
{ "type": "Feature", "properties": { "id": 229.0, "distrito_i": 54, "nombre_dis": "San Francisco Chinameca", "municipio": "LP_OESTE", "departamen": "La Paz", "anio": null, "total_dese": 207.0, "porcentaje": 0.47 }, "geometry": { "type": "Point", "coordinates": [ -89.072905083037696, 13.612946402830245 ] } },
{ "type": "Feature", "properties": { "id": 230.0, "distrito_i": 29, "nombre_dis": "San Luis Talpa", "municipio": "LP_OESTE", "departamen": "La Paz", "anio": null, "total_dese": 787.0, "porcentaje": 1.78 }, "geometry": { "type": "Point", "coordinates": [ -89.096976430871209, 13.435807171389621 ] } },
{ "type": "Feature", "properties": { "id": 231.0, "distrito_i": 9, "nombre_dis": "Mercedes La Ceiba", "municipio": "LP_CENTRO", "departamen": "La Paz", "anio": null, "total_dese": 276.0, "porcentaje": 0.62 }, "geometry": { "type": "Point", "coordinates": [ -88.914294226135169, 13.644706359919478 ] } },
{ "type": "Feature", "properties": { "id": 232.0, "distrito_i": 53, "nombre_dis": "Guazapa", "municipio": "SS_NORTE", "departamen": "San Salvador", "anio": null, "total_dese": 362.0, "porcentaje": 0.82 }, "geometry": { "type": "Point", "coordinates": [ -89.166620726822259, 13.897184452900092 ] } },
{ "type": "Feature", "properties": { "id": 233.0, "distrito_i": 37, "nombre_dis": "Talnique", "municipio": "LL_OESTE", "departamen": "La Libertad", "anio": null, "total_dese": 366.0, "porcentaje": 0.83 }, "geometry": { "type": "Point", "coordinates": [ -89.396238680920874, 13.675073006768327 ] } },
{ "type": "Feature", "properties": { "id": 234.0, "distrito_i": 10, "nombre_dis": "El Rosario", "municipio": "LP_CENTRO", "departamen": "La Paz", "anio": null, "total_dese": 551.0, "porcentaje": 1.25 }, "geometry": { "type": "Point", "coordinates": [ -89.004590724038536, 13.469144945254312 ] } },
{ "type": "Feature", "properties": { "id": 235.0, "distrito_i": 27, "nombre_dis": "Apopa", "municipio": "SS_OESTE", "departamen": "San Salvador", "anio": null, "total_dese": 1699.0, "porcentaje": 3.84 }, "geometry": { "type": "Point", "coordinates": [ -89.196972190845955, 13.799417549705316 ] } },
{ "type": "Feature", "properties": { "id": 236.0, "distrito_i": 55, "nombre_dis": "Santa Tecla", "municipio": "LL_SUR", "departamen": "La Libertad", "anio": null, "total_dese": 1979.0, "porcentaje": 4.48 }, "geometry": { "type": "Point", "coordinates": [ -89.3092936964986, 13.64783576482407 ] } },
{ "type": "Feature", "properties": { "id": 237.0, "distrito_i": 52, "nombre_dis": "San Marcos", "municipio": "SS_CENTRO", "departamen": "San Salvador", "anio": null, "total_dese": 585.0, "porcentaje": 1.32 }, "geometry": { "type": "Point", "coordinates": [ -89.228031369188074, 13.640880021963762 ] } },
{ "type": "Feature", "properties": { "id": 238.0, "distrito_i": 8, "nombre_dis": "Comasagua", "municipio": "LL_SUR", "departamen": "La Libertad", "anio": null, "total_dese": 140.0, "porcentaje": 0.32 }, "geometry": { "type": "Point", "coordinates": [ -89.365206935041712, 13.607104323779247 ] } },
{ "type": "Feature", "properties": { "id": 239.0, "distrito_i": 33, "nombre_dis": "San Pedro Nonualco", "municipio": "LP_CENTRO", "departamen": "La Paz", "anio": null, "total_dese": 358.0, "porcentaje": 0.81 }, "geometry": { "type": "Point", "coordinates": [ -88.934831917172048, 13.591295562139871 ] } },
{ "type": "Feature", "properties": { "id": 240.0, "distrito_i": 11, "nombre_dis": "Panchimalco", "municipio": "SS_SUR", "departamen": "San Salvador", "anio": null, "total_dese": 224.0, "porcentaje": 0.51 }, "geometry": { "type": "Point", "coordinates": [ -89.177709759128973, 13.572361852985443 ] } },
{ "type": "Feature", "properties": { "id": 241.0, "distrito_i": 22, "nombre_dis": "San Rafael Obrajuelo", "municipio": "LP_ESTE", "departamen": "La Paz", "anio": null, "total_dese": 471.0, "porcentaje": 1.07 }, "geometry": { "type": "Point", "coordinates": [ -88.921748245946773, 13.494522336012833 ] } },
{ "type": "Feature", "properties": { "id": 242.0, "distrito_i": 51, "nombre_dis": "Antiguo Cuscatlán", "municipio": "LL_ESTE", "departamen": "La Libertad", "anio": null, "total_dese": 783.0, "porcentaje": 1.77 }, "geometry": { "type": "Point", "coordinates": [ -89.252940018858908, 13.674067207176597 ] } },
{ "type": "Feature", "properties": { "id": 243.0, "distrito_i": 12, "nombre_dis": "Nejapa", "municipio": "SS_OESTE", "departamen": "San Salvador", "anio": null, "total_dese": 562.0, "porcentaje": 1.27 }, "geometry": { "type": "Point", "coordinates": [ -89.22627714654206, 13.840025565863982 ] } },
{ "type": "Feature", "properties": { "id": 244.0, "distrito_i": 56, "nombre_dis": "Zaragoza", "municipio": "LL_ESTE", "departamen": "La Libertad", "anio": null, "total_dese": 1102.0, "porcentaje": 2.49 }, "geometry": { "type": "Point", "coordinates": [ -89.297370465996622, 13.575376773507037 ] } },
{ "type": "Feature", "properties": { "id": 245.0, "distrito_i": 50, "nombre_dis": "Ilopango", "municipio": "SS_ESTE", "departamen": "San Salvador", "anio": null, "total_dese": 1362.0, "porcentaje": 3.08 }, "geometry": { "type": "Point", "coordinates": [ -89.095428116379864, 13.692355396508134 ] } },
{ "type": "Feature", "properties": { "id": 246.0, "distrito_i": 31, "nombre_dis": "La Libertad", "municipio": "LL_COSTA", "departamen": "La Libertad", "anio": null, "total_dese": 1475.0, "porcentaje": 3.34 }, "geometry": { "type": "Point", "coordinates": [ -89.264363936184125, 13.490338468999985 ] } },
{ "type": "Feature", "properties": { "id": 247.0, "distrito_i": 7, "nombre_dis": "Zacatecoluca", "municipio": "LP_ESTE", "departamen": "La Paz", "anio": null, "total_dese": 2089.0, "porcentaje": 4.73 }, "geometry": { "type": "Point", "coordinates": [ -88.850757252282946, 13.431007042470963 ] } },
{ "type": "Feature", "properties": { "id": 248.0, "distrito_i": 2, "nombre_dis": "San Juan Opico", "municipio": "LL_CENTRO", "departamen": "La Libertad", "anio": null, "total_dese": 1478.0, "porcentaje": 3.34 }, "geometry": { "type": "Point", "coordinates": [ -89.368313107948509, 13.860001166367784 ] } },
{ "type": "Feature", "properties": { "id": 249.0, "distrito_i": 16, "nombre_dis": "Ayutuxtepeque", "municipio": "SS_OESTE", "departamen": "San Salvador", "anio": null, "total_dese": 589.0, "porcentaje": 1.33 }, "geometry": { "type": "Point", "coordinates": [ -89.201749629048479, 13.754500961801114 ] } },
{ "type": "Feature", "properties": { "id": 250.0, "distrito_i": 1, "nombre_dis": "El Paisnal", "municipio": "SS_NORTE", "departamen": "San Salvador", "anio": null, "total_dese": 240.0, "porcentaje": 0.54 }, "geometry": { "type": "Point", "coordinates": [ -89.219449405481427, 14.008455202242615 ] } },
{ "type": "Feature", "properties": { "id": 251.0, "distrito_i": 2, "nombre_dis": "San Juan Opico", "municipio": "LL_CENTRO", "departamen": "La Libertad", "anio": null, "total_dese": 1047.0, "porcentaje": 2.36 }, "geometry": { "type": "Point", "coordinates": [ -89.368313107948509, 13.860001166367784 ] } },
{ "type": "Feature", "properties": { "id": 252.0, "distrito_i": 3, "nombre_dis": "San Matías", "municipio": "LL_NORTE", "departamen": "La Libertad", "anio": null, "total_dese": 278.0, "porcentaje": 0.63 }, "geometry": { "type": "Point", "coordinates": [ -89.306135594839446, 13.899514485284268 ] } },
{ "type": "Feature", "properties": { "id": 253.0, "distrito_i": 4, "nombre_dis": "Tamanique", "municipio": "LL_COSTA", "departamen": "La Libertad", "anio": null, "total_dese": 137.0, "porcentaje": 0.31 }, "geometry": { "type": "Point", "coordinates": [ -89.411616402578744, 13.563902424971866 ] } },
{ "type": "Feature", "properties": { "id": 254.0, "distrito_i": 5, "nombre_dis": "San Antonio Masahuat", "municipio": "LP_CENTRO", "departamen": "La Paz", "anio": null, "total_dese": 323.0, "porcentaje": 0.73 }, "geometry": { "type": "Point", "coordinates": [ -89.021258326053754, 13.572042056588906 ] } },
{ "type": "Feature", "properties": { "id": 255.0, "distrito_i": 6, "nombre_dis": "Chiltiupán", "municipio": "LL_COSTA", "departamen": "La Libertad", "anio": null, "total_dese": 172.0, "porcentaje": 0.39 }, "geometry": { "type": "Point", "coordinates": [ -89.463978243276372, 13.563906026964119 ] } },
{ "type": "Feature", "properties": { "id": 256.0, "distrito_i": 7, "nombre_dis": "Zacatecoluca", "municipio": "LP_ESTE", "departamen": "La Paz", "anio": null, "total_dese": 2005.0, "porcentaje": 4.52 }, "geometry": { "type": "Point", "coordinates": [ -88.850757252282946, 13.431007042470963 ] } },
{ "type": "Feature", "properties": { "id": 257.0, "distrito_i": 8, "nombre_dis": "Comasagua", "municipio": "LL_SUR", "departamen": "La Libertad", "anio": null, "total_dese": 174.0, "porcentaje": 0.39 }, "geometry": { "type": "Point", "coordinates": [ -89.365206935041712, 13.607104323779247 ] } },
{ "type": "Feature", "properties": { "id": 258.0, "distrito_i": 9, "nombre_dis": "Mercedes La Ceiba", "municipio": "LP_CENTRO", "departamen": "La Paz", "anio": null, "total_dese": 291.0, "porcentaje": 0.66 }, "geometry": { "type": "Point", "coordinates": [ -88.914294226135169, 13.644706359919478 ] } },
{ "type": "Feature", "properties": { "id": 259.0, "distrito_i": 10, "nombre_dis": "El Rosario", "municipio": "LP_CENTRO", "departamen": "La Paz", "anio": null, "total_dese": 671.0, "porcentaje": 1.51 }, "geometry": { "type": "Point", "coordinates": [ -89.004590724038536, 13.469144945254312 ] } },
{ "type": "Feature", "properties": { "id": 260.0, "distrito_i": 11, "nombre_dis": "Panchimalco", "municipio": "SS_SUR", "departamen": "San Salvador", "anio": null, "total_dese": 181.0, "porcentaje": 0.41 }, "geometry": { "type": "Point", "coordinates": [ -89.177709759128973, 13.572361852985443 ] } },
{ "type": "Feature", "properties": { "id": 261.0, "distrito_i": 12, "nombre_dis": "Nejapa", "municipio": "SS_OESTE", "departamen": "San Salvador", "anio": null, "total_dese": 550.0, "porcentaje": 1.24 }, "geometry": { "type": "Point", "coordinates": [ -89.22627714654206, 13.840025565863982 ] } },
{ "type": "Feature", "properties": { "id": 262.0, "distrito_i": 13, "nombre_dis": "San Juan Tepezontes", "municipio": "LP_CENTRO", "departamen": "La Paz", "anio": null, "total_dese": 327.0, "porcentaje": 0.74 }, "geometry": { "type": "Point", "coordinates": [ -88.994511282663495, 13.598744489579879 ] } },
{ "type": "Feature", "properties": { "id": 263.0, "distrito_i": 14, "nombre_dis": "Mejicanos", "municipio": "SS_CENTRO", "departamen": "San Salvador", "anio": null, "total_dese": 1721.0, "porcentaje": 3.88 }, "geometry": { "type": "Point", "coordinates": [ -89.218784666588803, 13.737886615764458 ] } },
{ "type": "Feature", "properties": { "id": 264.0, "distrito_i": 15, "nombre_dis": "Jicalapa", "municipio": "LL_COSTA", "departamen": "La Libertad", "anio": null, "total_dese": 108.0, "porcentaje": 0.24 }, "geometry": { "type": "Point", "coordinates": [ -89.516369353052582, 13.53403142057169 ] } },
{ "type": "Feature", "properties": { "id": 265.0, "distrito_i": 17, "nombre_dis": "Santo Tomás", "municipio": "SS_CENTRO", "departamen": "San Salvador", "anio": null, "total_dese": 262.0, "porcentaje": 0.59 }, "geometry": { "type": "Point", "coordinates": [ -89.143507967660597, 13.640337332489858 ] } },
{ "type": "Feature", "properties": { "id": 266.0, "distrito_i": 18, "nombre_dis": "Santiago Nonualco", "municipio": "LP_CENTRO", "departamen": "La Paz", "anio": null, "total_dese": 1193.0, "porcentaje": 2.69 }, "geometry": { "type": "Point", "coordinates": [ -88.959283540327007, 13.470583405871963 ] } },
{ "type": "Feature", "properties": { "id": 267.0, "distrito_i": 19, "nombre_dis": "San Emigdio", "municipio": "LP_CENTRO", "departamen": "La Paz", "anio": null, "total_dese": 310.0, "porcentaje": 0.7 }, "geometry": { "type": "Point", "coordinates": [ -88.992381787040571, 13.649778377203535 ] } },
{ "type": "Feature", "properties": { "id": 268.0, "distrito_i": 20, "nombre_dis": "Cuscatancingo", "municipio": "SS_ESTE", "departamen": "San Salvador", "anio": null, "total_dese": 695.0, "porcentaje": 1.57 }, "geometry": { "type": "Point", "coordinates": [ -89.177880739771581, 13.730732612097876 ] } },
{ "type": "Feature", "properties": { "id": 269.0, "distrito_i": 21, "nombre_dis": "Santa María Ostuma", "municipio": "LP_CENTRO", "departamen": "La Paz", "anio": null, "total_dese": 282.0, "porcentaje": 0.64 }, "geometry": { "type": "Point", "coordinates": [ -88.926518228995505, 13.625972350993607 ] } },
{ "type": "Feature", "properties": { "id": 270.0, "distrito_i": 22, "nombre_dis": "San Rafael Obrajuelo", "municipio": "LP_ESTE", "departamen": "La Paz", "anio": null, "total_dese": 493.0, "porcentaje": 1.11 }, "geometry": { "type": "Point", "coordinates": [ -88.921748245946773, 13.494522336012833 ] } },
{ "type": "Feature", "properties": { "id": 271.0, "distrito_i": 23, "nombre_dis": "San Martín", "municipio": "SS_ESTE", "departamen": "San Salvador", "anio": null, "total_dese": 967.0, "porcentaje": 2.18 }, "geometry": { "type": "Point", "coordinates": [ -89.062046409043504, 13.735125893975415 ] } },
{ "type": "Feature", "properties": { "id": 272.0, "distrito_i": 24, "nombre_dis": "Soyapango", "municipio": "SS_ESTE", "departamen": "San Salvador", "anio": null, "total_dese": 2294.0, "porcentaje": 5.17 }, "geometry": { "type": "Point", "coordinates": [ -89.143453849141522, 13.703777189278172 ] } },
{ "type": "Feature", "properties": { "id": 273.0, "distrito_i": 25, "nombre_dis": "San Luis La Herradura", "municipio": "LP_CENTRO", "departamen": "La Paz", "anio": null, "total_dese": 701.0, "porcentaje": 1.58 }, "geometry": { "type": "Point", "coordinates": [ -88.913371501531415, 13.333261548866092 ] } },
{ "type": "Feature", "properties": { "id": 274.0, "distrito_i": 26, "nombre_dis": "Huizúcar", "municipio": "LL_ESTE", "departamen": "La Libertad", "anio": null, "total_dese": 132.0, "porcentaje": 0.3 }, "geometry": { "type": "Point", "coordinates": [ -89.24261374919304, 13.574620748727474 ] } },
{ "type": "Feature", "properties": { "id": 275.0, "distrito_i": 27, "nombre_dis": "Apopa", "municipio": "SS_OESTE", "departamen": "San Salvador", "anio": null, "total_dese": 1363.0, "porcentaje": 3.07 }, "geometry": { "type": "Point", "coordinates": [ -89.196972190845955, 13.799417549705316 ] } },
{ "type": "Feature", "properties": { "id": 276.0, "distrito_i": 28, "nombre_dis": "San Pedro Masahuat", "municipio": "LP_OESTE", "departamen": "La Paz", "anio": null, "total_dese": 693.0, "porcentaje": 1.56 }, "geometry": { "type": "Point", "coordinates": [ -89.029682481331506, 13.450971283861213 ] } },
{ "type": "Feature", "properties": { "id": 277.0, "distrito_i": 29, "nombre_dis": "San Luis Talpa", "municipio": "LP_OESTE", "departamen": "La Paz", "anio": null, "total_dese": 921.0, "porcentaje": 2.08 }, "geometry": { "type": "Point", "coordinates": [ -89.096976430871209, 13.435807171389621 ] } },
{ "type": "Feature", "properties": { "id": 278.0, "distrito_i": 30, "nombre_dis": "San Pablo Tacachico", "municipio": "LL_NORTE", "departamen": "La Libertad", "anio": null, "total_dese": 378.0, "porcentaje": 0.85 }, "geometry": { "type": "Point", "coordinates": [ -89.330760940863698, 13.999557644210299 ] } },
{ "type": "Feature", "properties": { "id": 279.0, "distrito_i": 31, "nombre_dis": "La Libertad", "municipio": "LL_COSTA", "departamen": "La Libertad", "anio": null, "total_dese": 1801.0, "porcentaje": 4.06 }, "geometry": { "type": "Point", "coordinates": [ -89.264363936184125, 13.490338468999985 ] } },
{ "type": "Feature", "properties": { "id": 280.0, "distrito_i": 33, "nombre_dis": "San Pedro Nonualco", "municipio": "LP_CENTRO", "departamen": "La Paz", "anio": null, "total_dese": 478.0, "porcentaje": 1.08 }, "geometry": { "type": "Point", "coordinates": [ -88.934831917172048, 13.591295562139871 ] } },
{ "type": "Feature", "properties": { "id": 281.0, "distrito_i": 34, "nombre_dis": "Tapalhuaca", "municipio": "LP_OESTE", "departamen": "La Paz", "anio": null, "total_dese": 379.0, "porcentaje": 0.85 }, "geometry": { "type": "Point", "coordinates": [ -89.067134232059161, 13.548945944954532 ] } },
{ "type": "Feature", "properties": { "id": 282.0, "distrito_i": 35, "nombre_dis": "San Miguel Tepezontes", "municipio": "LP_CENTRO", "departamen": "La Paz", "anio": null, "total_dese": 255.0, "porcentaje": 0.58 }, "geometry": { "type": "Point", "coordinates": [ -89.019229766698487, 13.63183294504425 ] } },
{ "type": "Feature", "properties": { "id": 283.0, "distrito_i": 36, "nombre_dis": "Delgado", "municipio": "SS_ESTE", "departamen": "San Salvador", "anio": null, "total_dese": 739.0, "porcentaje": 1.67 }, "geometry": { "type": "Point", "coordinates": [ -89.160325955587581, 13.755155299169184 ] } },
{ "type": "Feature", "properties": { "id": 284.0, "distrito_i": 37, "nombre_dis": "Talnique", "municipio": "LL_OESTE", "departamen": "La Libertad", "anio": null, "total_dese": 365.0, "porcentaje": 0.82 }, "geometry": { "type": "Point", "coordinates": [ -89.396238680920874, 13.675073006768327 ] } },
{ "type": "Feature", "properties": { "id": 285.0, "distrito_i": 38, "nombre_dis": "Cuyultitán", "municipio": "LP_OESTE", "departamen": "La Paz", "anio": null, "total_dese": 431.0, "porcentaje": 0.97 }, "geometry": { "type": "Point", "coordinates": [ -89.091192634935666, 13.537676235774381 ] } },
{ "type": "Feature", "properties": { "id": 286.0, "distrito_i": 39, "nombre_dis": "San Juan Talpa", "municipio": "LP_OESTE", "departamen": "La Paz", "anio": null, "total_dese": 550.0, "porcentaje": 1.24 }, "geometry": { "type": "Point", "coordinates": [ -89.090359746442402, 13.499191968903707 ] } },
{ "type": "Feature", "properties": { "id": 287.0, "distrito_i": 40, "nombre_dis": "Rosario De Mora", "municipio": "SS_SUR", "departamen": "San Salvador", "anio": null, "total_dese": 133.0, "porcentaje": 0.3 }, "geometry": { "type": "Point", "coordinates": [ -89.206298255176719, 13.539808535353398 ] } },
{ "type": "Feature", "properties": { "id": 288.0, "distrito_i": 41, "nombre_dis": "Ciudad Arce", "municipio": "LL_CENTRO", "departamen": "La Libertad", "anio": null, "total_dese": 807.0, "porcentaje": 1.82 }, "geometry": { "type": "Point", "coordinates": [ -89.423996266132178, 13.814255718778384 ] } },
{ "type": "Feature", "properties": { "id": 289.0, "distrito_i": 43, "nombre_dis": "Jerusalén", "municipio": "LP_CENTRO", "departamen": "La Paz", "anio": null, "total_dese": 232.0, "porcentaje": 0.52 }, "geometry": { "type": "Point", "coordinates": [ -88.911166532205229, 13.654496392721276 ] } },
{ "type": "Feature", "properties": { "id": 290.0, "distrito_i": 44, "nombre_dis": "Tepecoyo", "municipio": "LL_OESTE", "departamen": "La Libertad", "anio": null, "total_dese": 159.0, "porcentaje": 0.36 }, "geometry": { "type": "Point", "coordinates": [ -89.489030691454388, 13.692204582189408 ] } },
{ "type": "Feature", "properties": { "id": 291.0, "distrito_i": 45, "nombre_dis": "San Juan Nonualco", "municipio": "LP_ESTE", "departamen": "La Paz", "anio": null, "total_dese": 1424.0, "porcentaje": 3.21 }, "geometry": { "type": "Point", "coordinates": [ -88.905277136785401, 13.503095592612924 ] } },
{ "type": "Feature", "properties": { "id": 292.0, "distrito_i": 46, "nombre_dis": "Santiago Texacuangos", "municipio": "SS_CENTRO", "departamen": "San Salvador", "anio": null, "total_dese": 298.0, "porcentaje": 0.67 }, "geometry": { "type": "Point", "coordinates": [ -89.09518647510221, 13.649934212964384 ] } },
{ "type": "Feature", "properties": { "id": 293.0, "distrito_i": 47, "nombre_dis": "Jayaque", "municipio": "LL_OESTE", "departamen": "La Libertad", "anio": null, "total_dese": 228.0, "porcentaje": 0.51 }, "geometry": { "type": "Point", "coordinates": [ -89.444656976706085, 13.677728970758274 ] } },
{ "type": "Feature", "properties": { "id": 294.0, "distrito_i": 48, "nombre_dis": "Aguilares", "municipio": "SS_NORTE", "departamen": "San Salvador", "anio": null, "total_dese": 548.0, "porcentaje": 1.24 }, "geometry": { "type": "Point", "coordinates": [ -89.197360689137852, 13.955039247662924 ] } },
{ "type": "Feature", "properties": { "id": 295.0, "distrito_i": 49, "nombre_dis": "Teotepeque", "municipio": "LL_COSTA", "departamen": "La Libertad", "anio": null, "total_dese": 156.0, "porcentaje": 0.35 }, "geometry": { "type": "Point", "coordinates": [ -89.543374356396043, 13.576690757421156 ] } },
{ "type": "Feature", "properties": { "id": 296.0, "distrito_i": 50, "nombre_dis": "Ilopango", "municipio": "SS_ESTE", "departamen": "San Salvador", "anio": null, "total_dese": 1377.0, "porcentaje": 3.11 }, "geometry": { "type": "Point", "coordinates": [ -89.095428116379864, 13.692355396508134 ] } },
{ "type": "Feature", "properties": { "id": 297.0, "distrito_i": 51, "nombre_dis": "Antiguo Cuscatlán", "municipio": "LL_ESTE", "departamen": "La Libertad", "anio": null, "total_dese": 691.0, "porcentaje": 1.56 }, "geometry": { "type": "Point", "coordinates": [ -89.252940018858908, 13.674067207176597 ] } },
{ "type": "Feature", "properties": { "id": 298.0, "distrito_i": 52, "nombre_dis": "San Marcos", "municipio": "SS_CENTRO", "departamen": "San Salvador", "anio": null, "total_dese": 460.0, "porcentaje": 1.04 }, "geometry": { "type": "Point", "coordinates": [ -89.228031369188074, 13.640880021963762 ] } },
{ "type": "Feature", "properties": { "id": 299.0, "distrito_i": 53, "nombre_dis": "Guazapa", "municipio": "SS_NORTE", "departamen": "San Salvador", "anio": null, "total_dese": 382.0, "porcentaje": 0.86 }, "geometry": { "type": "Point", "coordinates": [ -89.166620726822259, 13.897184452900092 ] } },
{ "type": "Feature", "properties": { "id": 300.0, "distrito_i": 54, "nombre_dis": "San Francisco Chinameca", "municipio": "LP_OESTE", "departamen": "La Paz", "anio": null, "total_dese": 196.0, "porcentaje": 0.44 }, "geometry": { "type": "Point", "coordinates": [ -89.072905083037696, 13.612946402830245 ] } },
{ "type": "Feature", "properties": { "id": 301.0, "distrito_i": 55, "nombre_dis": "Santa Tecla", "municipio": "LL_SUR", "departamen": "La Libertad", "anio": null, "total_dese": 2623.0, "porcentaje": 5.92 }, "geometry": { "type": "Point", "coordinates": [ -89.3092936964986, 13.64783576482407 ] } },
{ "type": "Feature", "properties": { "id": 302.0, "distrito_i": 56, "nombre_dis": "Zaragoza", "municipio": "LL_ESTE", "departamen": "La Libertad", "anio": null, "total_dese": 1289.0, "porcentaje": 2.91 }, "geometry": { "type": "Point", "coordinates": [ -89.297370465996622, 13.575376773507037 ] } },
{ "type": "Feature", "properties": { "id": 303.0, "distrito_i": 57, "nombre_dis": "Sacacoyo", "municipio": "LL_OESTE", "departamen": "La Libertad", "anio": null, "total_dese": 176.0, "porcentaje": 0.4 }, "geometry": { "type": "Point", "coordinates": [ -89.443517649074707, 13.74675700816738 ] } },
{ "type": "Feature", "properties": { "id": 304.0, "distrito_i": 58, "nombre_dis": "Colón", "municipio": "LL_OESTE", "departamen": "La Libertad", "anio": null, "total_dese": 1550.0, "porcentaje": 3.5 }, "geometry": { "type": "Point", "coordinates": [ -89.35847055005479, 13.724475559713939 ] } },
{ "type": "Feature", "properties": { "id": 305.0, "distrito_i": 59, "nombre_dis": "Nuevo Cuscatlán", "municipio": "LL_ESTE", "departamen": "La Libertad", "anio": null, "total_dese": 481.0, "porcentaje": 1.08 }, "geometry": { "type": "Point", "coordinates": [ -89.265753031975109, 13.643098273389553 ] } },
{ "type": "Feature", "properties": { "id": 306.0, "distrito_i": 60, "nombre_dis": "Tonacatepeque", "municipio": "SS_ESTE", "departamen": "San Salvador", "anio": null, "total_dese": 494.0, "porcentaje": 1.11 }, "geometry": { "type": "Point", "coordinates": [ -89.118914089118078, 13.783230398634702 ] } },
{ "type": "Feature", "properties": { "id": 307.0, "distrito_i": 61, "nombre_dis": "Olocuilta", "municipio": "LP_OESTE", "departamen": "La Paz", "anio": null, "total_dese": 1784.0, "porcentaje": 4.02 }, "geometry": { "type": "Point", "coordinates": [ -89.127111575671947, 13.539110285464742 ] } },
{ "type": "Feature", "properties": { "id": 308.0, "distrito_i": 62, "nombre_dis": "San Salvador", "municipio": "SS_CENTRO", "departamen": "San Salvador", "anio": null, "total_dese": 2571.0, "porcentaje": 5.8 }, "geometry": { "type": "Point", "coordinates": [ -89.215557345956526, 13.693433386228698 ] } },
{ "type": "Feature", "properties": { "id": 309.0, "distrito_i": 63, "nombre_dis": "San José Villanueva", "municipio": "LL_ESTE", "departamen": "La Libertad", "anio": null, "total_dese": 244.0, "porcentaje": 0.55 }, "geometry": { "type": "Point", "coordinates": [ -89.270749889321152, 13.558661851993948 ] } },
{ "type": "Feature", "properties": { "id": 310.0, "distrito_i": 64, "nombre_dis": "Quezaltepeque", "municipio": "LL_NORTE", "departamen": "La Libertad", "anio": null, "total_dese": 1539.0, "porcentaje": 3.47 }, "geometry": { "type": "Point", "coordinates": [ -89.273780056561691, 13.850797205483703 ] } },
{ "type": "Feature", "properties": { "id": 311.0, "distrito_i": 16, "nombre_dis": "Ayutuxtepeque", "municipio": "SS_OESTE", "departamen": "San Salvador", "anio": null, "total_dese": 1221.0, "porcentaje": 1.11 }, "geometry": { "type": "Point", "coordinates": [ -89.201749629048479, 13.754500961801114 ] } },
{ "type": "Feature", "properties": { "id": 312.0, "distrito_i": 11, "nombre_dis": "Panchimalco", "municipio": "SS_SUR", "departamen": "San Salvador", "anio": null, "total_dese": 527.0, "porcentaje": 0.48 }, "geometry": { "type": "Point", "coordinates": [ -89.177709759128973, 13.572361852985443 ] } },
{ "type": "Feature", "properties": { "id": 313.0, "distrito_i": 62, "nombre_dis": "San Salvador", "municipio": "SS_CENTRO", "departamen": "San Salvador", "anio": null, "total_dese": 6812.0, "porcentaje": 6.18 }, "geometry": { "type": "Point", "coordinates": [ -89.215557345956526, 13.693433386228698 ] } },
{ "type": "Feature", "properties": { "id": 314.0, "distrito_i": 39, "nombre_dis": "San Juan Talpa", "municipio": "LP_OESTE", "departamen": "La Paz", "anio": null, "total_dese": 1684.0, "porcentaje": 1.53 }, "geometry": { "type": "Point", "coordinates": [ -89.090359746442402, 13.499191968903707 ] } },
{ "type": "Feature", "properties": { "id": 315.0, "distrito_i": 63, "nombre_dis": "San José Villanueva", "municipio": "LL_ESTE", "departamen": "La Libertad", "anio": null, "total_dese": 605.0, "porcentaje": 0.55 }, "geometry": { "type": "Point", "coordinates": [ -89.270749889321152, 13.558661851993948 ] } },
{ "type": "Feature", "properties": { "id": 316.0, "distrito_i": 4, "nombre_dis": "Tamanique", "municipio": "LL_COSTA", "departamen": "La Libertad", "anio": null, "total_dese": 317.0, "porcentaje": 0.29 }, "geometry": { "type": "Point", "coordinates": [ -89.411616402578744, 13.563902424971866 ] } },
{ "type": "Feature", "properties": { "id": 317.0, "distrito_i": 10, "nombre_dis": "El Rosario", "municipio": "LP_CENTRO", "departamen": "La Paz", "anio": null, "total_dese": 1364.0, "porcentaje": 1.24 }, "geometry": { "type": "Point", "coordinates": [ -89.004590724038536, 13.469144945254312 ] } },
{ "type": "Feature", "properties": { "id": 318.0, "distrito_i": 58, "nombre_dis": "Colón", "municipio": "LL_OESTE", "departamen": "La Libertad", "anio": null, "total_dese": 4146.0, "porcentaje": 3.76 }, "geometry": { "type": "Point", "coordinates": [ -89.35847055005479, 13.724475559713939 ] } },
{ "type": "Feature", "properties": { "id": 319.0, "distrito_i": 20, "nombre_dis": "Cuscatancingo", "municipio": "SS_ESTE", "departamen": "San Salvador", "anio": null, "total_dese": 1729.0, "porcentaje": 1.57 }, "geometry": { "type": "Point", "coordinates": [ -89.177880739771581, 13.730732612097876 ] } },
{ "type": "Feature", "properties": { "id": 320.0, "distrito_i": 29, "nombre_dis": "San Luis Talpa", "municipio": "LP_OESTE", "departamen": "La Paz", "anio": null, "total_dese": 2053.0, "porcentaje": 1.86 }, "geometry": { "type": "Point", "coordinates": [ -89.096976430871209, 13.435807171389621 ] } },
{ "type": "Feature", "properties": { "id": 321.0, "distrito_i": 59, "nombre_dis": "Nuevo Cuscatlán", "municipio": "LL_ESTE", "departamen": "La Libertad", "anio": null, "total_dese": 1370.0, "porcentaje": 1.24 }, "geometry": { "type": "Point", "coordinates": [ -89.265753031975109, 13.643098273389553 ] } },
{ "type": "Feature", "properties": { "id": 322.0, "distrito_i": 45, "nombre_dis": "San Juan Nonualco", "municipio": "LP_ESTE", "departamen": "La Paz", "anio": null, "total_dese": 2622.0, "porcentaje": 2.38 }, "geometry": { "type": "Point", "coordinates": [ -88.905277136785401, 13.503095592612924 ] } },
{ "type": "Feature", "properties": { "id": 323.0, "distrito_i": 22, "nombre_dis": "San Rafael Obrajuelo", "municipio": "LP_ESTE", "departamen": "La Paz", "anio": null, "total_dese": 1205.0, "porcentaje": 1.09 }, "geometry": { "type": "Point", "coordinates": [ -88.921748245946773, 13.494522336012833 ] } },
{ "type": "Feature", "properties": { "id": 324.0, "distrito_i": 40, "nombre_dis": "Rosario De Mora", "municipio": "SS_SUR", "departamen": "San Salvador", "anio": null, "total_dese": 262.0, "porcentaje": 0.24 }, "geometry": { "type": "Point", "coordinates": [ -89.206298255176719, 13.539808535353398 ] } },
{ "type": "Feature", "properties": { "id": 325.0, "distrito_i": 23, "nombre_dis": "San Martín", "municipio": "SS_ESTE", "departamen": "San Salvador", "anio": null, "total_dese": 2409.0, "porcentaje": 2.19 }, "geometry": { "type": "Point", "coordinates": [ -89.062046409043504, 13.735125893975415 ] } },
{ "type": "Feature", "properties": { "id": 326.0, "distrito_i": 44, "nombre_dis": "Tepecoyo", "municipio": "LL_OESTE", "departamen": "La Libertad", "anio": null, "total_dese": 343.0, "porcentaje": 0.31 }, "geometry": { "type": "Point", "coordinates": [ -89.489030691454388, 13.692204582189408 ] } },
{ "type": "Feature", "properties": { "id": 327.0, "distrito_i": 34, "nombre_dis": "Tapalhuaca", "municipio": "LP_OESTE", "departamen": "La Paz", "anio": null, "total_dese": 901.0, "porcentaje": 0.82 }, "geometry": { "type": "Point", "coordinates": [ -89.067134232059161, 13.548945944954532 ] } },
{ "type": "Feature", "properties": { "id": 328.0, "distrito_i": 51, "nombre_dis": "Antiguo Cuscatlán", "municipio": "LL_ESTE", "departamen": "La Libertad", "anio": null, "total_dese": 2159.0, "porcentaje": 1.96 }, "geometry": { "type": "Point", "coordinates": [ -89.252940018858908, 13.674067207176597 ] } },
{ "type": "Feature", "properties": { "id": 329.0, "distrito_i": 49, "nombre_dis": "Teotepeque", "municipio": "LL_COSTA", "departamen": "La Libertad", "anio": null, "total_dese": 352.0, "porcentaje": 0.32 }, "geometry": { "type": "Point", "coordinates": [ -89.543374356396043, 13.576690757421156 ] } },
{ "type": "Feature", "properties": { "id": 330.0, "distrito_i": 19, "nombre_dis": "San Emigdio", "municipio": "LP_CENTRO", "departamen": "La Paz", "anio": null, "total_dese": 746.0, "porcentaje": 0.68 },